id,address,addressNumber,bikes,district,lat,lon,name,nearbyStations,slots,stationType,status,zip
1,001 - Río Sena-Río Balsas,S/N,26,CUA,19.4335714,-99.1678091,1 RIO SENA-RIO BALSAS,"3,8,85",1,"BIKE,TPV",OPN,6500.0
2,002 - Río Guadalquivir - Río Balsas,S/N,2,CUA,19.431386,-99.171695,2 RIO GUADALQUIVIR-RIO BALSAS,"1,5",10,BIKE,OPN,6500.0
3,003 - Reforma - Insurgentes,S/N,22,1,19.431655,-99.158668,3 REFORMA-INSURGENTES,"8,20,86",14,"BIKE,TPV",OPN,6500.0
4,004 - Río Nilo - Río Panuco,S/N,7,CUA,19.428309,-99.171713,4 RIO NILO-RIO PANUCO,"5,8,9,10",9,BIKE,OPN,6500.0
5,005 - Río Pánuco Río Tiber,S/N,6,CUA,19.42972,-99.169363,5 RIO PANUCO-RIO TIBER,"2,4,9,10",5,BIKE,OPN,6500.0
6,006 - Río Pánuco - Río Sena,S/N,9,CUA,19.430922,-99.166959,6 RIO PANUCO-RIO SENA,"1,3,5,10",5,BIKE,OPN,6500.0
7,007 - Río Elba - Río Lerma,S/N,1,CUA,19.425468,-99.175166,7 RIO ELBA-RIO LERMA,"13,14,21,28",21,BIKE,OPN,6500.0
8,008 - Reforma - General Prim,S/N,1,TAB,19.431141,-99.158317,8 REFORMA-GENERAL PRIM,"3,20,86",11,BIKE,OPN,6500.0
9,009 - Río Guadalquivir - Río Lerma,S/N,0,CUA,19.428009,-99.169918,9 RIO GUADALQUIVIR-RIO LERMA,"4,5,8,16",24,BIKE,OPN,6500.0
10,010 - Reforma - Ramírez,S/N,21,TAB,19.433321,-99.154752,10 REFORMA-RAMIREZ,26,15,"BIKE,TPV",OPN,6500.0
11,011 - Río Amazonas - Rio Lerma,S/N,9,CUA,19.430992,-99.163593,11 RIO AMAZONAS-RIO LERMA,"3,12,19",6,BIKE,OPN,6500.0
12,012 - Río Lerma - Villalongin,S/N,14,1,19.432313,-99.161597,12 RIO LERMA-VILLALONGIN,"11,19,20,85",1,BIKE,OPN,6500.0
13,013 - Reforma - Rio Mississippi,S/N,0,1,19.42502,-99.17231,13 REFORMA-RIO MISSISSIPPI,"7,14,21",30,"BIKE,TPV",OPN,6500.0
14,014 - Reforma - Rio de Plata,S/N,0,CUA,19.424768,-99.173261,14 REFORMA-RIO DE PLATA,"13,21,22,28",35,BIKE,OPN,6500.0
15,015 - Reforma - Rio Mississippi,S/N,0,CUA,19.425477,-99.171567,15 REFORMA-RIO MISSISSIPPI,"14,16,22,23",22,"BIKE,TPV",OPN,6500.0
16,016 - Reforma - Rio Tiber,S/N,1,1,19.427226,-99.168242,16 REFORMA-RÍO TIBER,"9,23,24",32,BIKE,OPN,6500.0
17,017 - Reforma - Rio Tiber,S/N,12,1,19.427501,-99.167125,17 REFORMA-RIO TIBER,"16,18,25",15,"BIKE,TPV",OPN,6500.0
18,018 - Reforma - Río Rhin,S/N,1,CUA,19.42888,-99.164176,18 REFORMA-RIO RHIN,"17,25",33,"BIKE,TPV",OPN,6500.0
19,019 - Reforma - Río Rhin,S/N,0,1,19.429241,-99.163377,19 REFORMA-RIO RHIN,"12,20,27",24,"BIKE,TPV",OPN,6500.0
20,020 - Reforma- Rio Tamesis,S/N,5,CUA,19.430964,-99.160206,20 REFORMA-RIO TAMESIS,"12,19,27",18,BIKE,OPN,6500.0
21,021 - Reforma - Dublin,S/N,0,1,19.42472,-99.17206,21 REFORMA-DUBLIN,"7,13,14,28",22,"BIKE,TPV",OPN,6500.0
22,022 - Reforma - Manchester,S/N,2,JUA,19.424375,-99.172575,22 REFORMA-MANCHESTER,"14,15,23,28",32,"BIKE,TPV",OPN,6500.0
23,023 - Reforma - Praga,S/N,0,JUA,19.42517,-99.17105,23 REFORMA-PRAGA,"15,16,22",36,BIKE,OPN,6500.0
24,024 - Reforma- Varsovia,S/N,1,JUA,19.42647,-99.16822,24 REFORMA-VARSOVIA,"16,23",26,"BIKE,TPV",OPN,6500.0
25,025 - Reforma - Estocolmo,S/N,8,JUA,19.427317,-99.166662,25 REFORMA-ESTOCOLMO,"17,18",19,BIKE,OPN,6500.0
26,026 - Reforma - Versalles,S/N,1,JUA,19.432685,-99.154726,26 REFORMA-VERSALLES,10,17,"BIKE,TPV",OPN,6500.0
27,027 - Reforma- Havre,S/N,1,JUA,19.429115,-99.162614,27 REFORMA-HAVRE,"19,26,31",35,"BIKE,TPV",OPN,6500.0
28,028 - Toledo- Tokio,S/N,25,JUA,19.423542,-99.172494,28 TOLEDO-TOKIO,"14,21,22",2,BIKE,OPN,6500.0
29,029 - Reforma - Bucareli,S/N,18,CEN,19.434913,-99.149939,29 REFORMA-BUCARELI,41,18,"BIKE,TPV",OPN,6500.0
30,030 - Hamburgo - Genova,S/N,0,JUA,19.426442,-99.164323,30 HAMBURGO-GENOVA,"26,34,35",36,"BIKE,TPV",CLS,6500.0
31,031 - Hamburgo - Insurgentes,S/N,1,JUA,19.427838,-99.161193,31 HAMBURGO-INSURGENTES,"19,27",34,BIKE,OPN,6500.0
32,032 - Londres - Sevilla,S/N,20,JUA,19.422705,-99.169922,32 LONDRES-SEVILLA,"22,38,39",13,BIKE,OPN,6500.0
33,033 - Londres - Florencia,S/N,5,JUA,19.424234,-99.166431,E33 LONDRES-FLORENCIA,"34,35,449",19,ELECTRIC_BIKE,OPN,6500.0
34,034 - Liverpool - Genova,S/N,14,JUA,19.424725,-99.163331,34 LIVERPOOL-GENOVA,"33,35",22,BIKE,OPN,5600.0
35,035 - Liverpool - Genova,S/N,25,JUA,19.424674,-99.163292,35 LIVERPOOL-GENOVA,"34,40",11,"BIKE,TPV",OPN,6500.0
36,036 - Puebla - Veracruz,S/N,0,1,19.419725,-99.175778,36 PUEBLA-VERACRUZ,"37,41,44",33,"BIKE,TPV",OPN,6140.0
37,037 - Guadalajara - Puebla,S/N,16,R-N,19.420419,-99.172676,37 GUADALAJARA-PUEBLA,"28,38,45",4,BIKE,OPN,6700.0
38,038 - Cozumel - PUEBLA,S/N,35,R-N,19.420801,-99.171407,38 COZUMEL-PUEBLA,"28,32,37",1,BIKE,OPN,6700.0
39,039 - Medellin - Chapultepec,S/N,4,R-N,19.422484,-99.167153,39 MEDELLIN-CHAPULTEPEC,"33,42,48",16,BIKE,OPN,6700.0
40,040 - Oaxaca - Puebla,S/N,1,R-N,19.42223,-99.164297,40 OAXACA-PUEBLA,"35,42",23,BIKE,OPN,6700.0
41,041 - Reforma - Av. de la República,S/N,0,1,19.435637,-99.150137,41 REFORMA-AV. DE LA REPUBLICA,29,33,"BIKE,TPV",OPN,6700.0
42,042 - Sinaloa - Valladolid,S/N,1,R-N,19.420472,-99.168238,42 SINALOA-VALLADOLID,"39,47,48,51",23,BIKE,OPN,6700.0
43,043 - Revillagigedo - Juárez,S/N,0,CEN,19.435228,-99.146063,43 JUAREZ-REVILLAGIGEDO,"52,82",33,"BIKE,TPV",OPN,6700.0
44,044 - Durango - Veracruz,S/N,11,R-N,19.418057,-99.174761,44 DURANGO-VERACRUZ,"36,41,49,50",14,BIKE,OPN,6140.0
45,045 - Durango - Sonora,S/N,2,R-N,19.418649,-99.172127,45 DURANGO-SONORA,"37,38,41",33,"BIKE,TPV",OPN,6700.0
46,046 - Durango - Salamanca,S/N,0,R-N,19.419214,-99.169732,46 DURANGO-SALAMANCA,"42,45,51,54",36,BIKE,CLS,6700.0
47,047 - Glorieta Cibeles - Oaxaca,S/N,10,1,19.419515,-99.166299,47 GLORIETA CIBELES-OAXACA,"42,51,56",9,"BIKE,TPV",OPN,6700.0
48,048 - Independencia - Azueta,S/N,4,CEN,19.433686,-99.146557,48 INDEPENDENCIA-AZUETA,"43,82",8,BIKE,OPN,6700.0
49,049 - Mazatlán - Juan de la Barrera,S/N,7,CON,19.416712,-99.175704,49 MAZATLAN-JUAN DE LA BARRERA,"41,44,50,60",29,BIKE,OPN,6140.0
50,050 - Cuernavaca - Veracruz,S/N,3,CON,19.416938,-99.173648,50 CUERNAVACA-VERACRUZ,"44,49,57,58",24,BIKE,OPN,6140.0
51,051 - Colima - Oaxaca,S/N,22,R-N,19.417995,-99.168248,51 COLIMA-OAXACA,"47,55,58",4,BIKE,OPN,6700.0
52,052 - Dolores - Juárez,S/N,14,CEN,19.436236,-99.142039,52 HIDALGO-TRUJANO,43,7,"BIKE,TPV",OPN,6140.0
53,053 - Fernando Montes de Oca - Tula,S/N,8,CON,19.414773,-99.178433,53 FERNANDO MONTES DE OCA-TULA,"52,60,65,66",7,BIKE,OPN,6140.0
54,054 - Parque España - Sonora,S/N,2,CON,19.416215,-99.170825,54 PARQUE ESPAÑA-SONORA,"50,51,58,63",34,"BIKE,TPV",OPN,6700.0
55,055 - 5 de Mayo - Bolívar,S/N,7,1,19.434356,-99.138064,55 5 DE MAYO-BOLIVAR,"65,87,88",8,"BIKE,TPV",OPN,6700.0
56,056 - Alvaro Obregón - Medellin,S/N,9,R-N,19.416959,-99.165702,56 ALVARO OBREGON-MEDELLIN,"47,51,55,59",26,BIKE,OPN,6700.0
57,057 - Cuernavaca - Juan Escutia,S/N,4,1,19.414903,-99.17495,57 CUERNAVACA-JUAN ESCUTIA,"48,49,50,62",8,BIKE,OPN,6140.0
58,058 - Parque España - Juan de la Barrera,S/N,7,CON,19.41568,-99.171793,58 PARQUE ESPAÑA-JUAN DE LA BARRERA,"50,54,61,63",20,BIKE,OPN,6140.0
59,059 - Popocatépetl - Amsterdam,S/N,20,HIP,19.415121,-99.166661,59 POPOCATEPETL-AMSTERDAM,"55,56,61,64",16,BIKE,OPN,6100.0
60,060 - Mazatlán - Fernando Montes de Oca,S/N,8,CON,19.414191,-99.177123,60 MAZATLAN-FERNANDO MONTES DE OCA,"23,52,62,66",28,BIKE,OPN,6140.0
61,061 - Avenida México - Sonora,S/N,12,HIP,19.413742,-99.169525,61 AVENIDA MEXICO-SONORA,"59,63,64,70",23,"BIKE,TPV",OPN,6100.0
62,062 - Fernando Montes de Oca - Amatlan,S/N,8,CON,19.413322,-99.175202,62 FERNANDO MONTES DE OCA-AMATLAN,"67,71,74",10,BIKE,OPN,6140.0
63,063 - Nuevo León - Laredo,S/N,3,1,19.413681,-99.171531,63 NUEVO LEON- LAREDO,"70,76,77",33,"BIKE,TPV",OPN,6100.0
64,064 - Sonora - Amsterdam,S/N,10,HIP,19.412877,-99.166986,64 SONORA-AMSTERDAM,"59,61,69",25,BIKE,OPN,6100.0
65,065 - Marconi - Tacuba,S/N,14,CEN,19.436142,-99.139906,65 MARCONI-TACUBA,"52,55",4,"BIKE,TPV",OPN,6170.0
66,066 - Mazatlán - Francisco Marquez,S/N,1,1,19.411402,-99.178666,66 MAZATLAN-FRANCISCO MARQUEZ,"65,72",26,BIKE,OPN,6170.0
67,067 - Vicente Suárez - Michoacan,S/N,16,CON,19.411797,-99.17588,67 VICENTE SUAREZ-MICHOACAN,"62,66,68",7,BIKE,OPN,6170.0
68,068 - Tamaulipas - Michoacan,S/N,1,CON,19.411556,-99.17406,68 TAMAULIPAS-MICHOACAN,"67,71,74",29,"BIKE,TPV",OPN,6170.0
69,069 - Michoacán - Amsterdam,S/N,8,HIP,19.410733,-99.168111,69 MICHOACAN-AMSTERDAM,"70,76,77",13,BIKE,OPN,6100.0
70,070 - Parque México - Michoacan,S/N,10,1,19.411272,-99.169718,70 PARQUE MEXICO-MICHOACAN,"69,71,76",25,"BIKE,TPV",OPN,6100.0
71,071 - Amsterdam - Michoacan,S/N,5,HIP,19.411423,-99.171351,71 AMSTERDAM-MICHOACAN,"70,74,76",30,BIKE,OPN,6100.0
72,072 - Mazatlán - Alfonso Reyes,S/N,2,1,19.409893,-99.179544,72 MAZATLAN-ALFONSO REYES,"65,66,75",23,BIKE,OPN,6170.0
73,073 - Campeche - Tamaulipas,S/N,0,H-C,19.410245,-99.175612,73 CAMPECHE-TAMAULIPAS,"67,68,75",36,BIKE,OPN,6170.0
74,074 - Nuevo León - Ozulama,S/N,3,1,19.410343,-99.172831,74 NUEVO LEON-OZULAMA,"63,68,71",24,BIKE,OPN,6100.0
75,075 - Alfonso Reyes - Atlixco,S/N,2,H-C,19.408722,-99.17669,75 ALFONSO REYES-ATLIXCO,"73,77,78",12,BIKE,OPN,6170.0
76,076 - Chilpancingo - Campeche,S/N,9,HIP,19.408736,-99.169913,76 CHILPANCINGO-CAMPECHE,"70,71,74",11,BIKE,OPN,6100.0
77,077 - Choapan - Tamaulipas,S/N,4,HIP,19.406765,-99.178321,77 CHOAPAN-TAMAULIPAS,"78,82",10,BIKE,OPN,6100.0
78,078 - Benjamín Hill - Tamaulipas,S/N,5,HIP,19.407503,-99.177382,78 BENJAMIN HILL-TAMAULIPAS,"77,82",29,"BIKE,TPV",OPN,6170.0
79,079 - Saltillo - Alfonso Reyes,S/N,7,HIP,19.407534,-99.174427,79 SALTILLO-ALFONSO REYES,"75,80,83",20,BIKE,OPN,6100.0
80,080 - Nuevo León - Aguascalientes,S/N,7,HIP,19.407307,-99.172118,80 NUEVO LEON-AGUASCALIENTES,"79,83,84",28,BIKE,OPN,6100.0
81,081 - Aguascalientes - Insurgentes,S/N,8,HIP,19.408006,-99.168475,81 AGUASCALIENTES-INSURGENTES,"76,84",18,BIKE,OPN,6100.0
82,082 - Independencia - Marroquí,S/N,0,CEN,19.433115,-99.143686,82 INDEPENDENCIA-MARROQUI,"43,48",12,"BIKE,TPV",OPN,6100.0
83,083 - Nuevo León - Alfonso Reyes,S/N,0,HIP,19.406296,-99.172117,83 NUEVO LEON-ALFONSO REYES,"79,80",15,"BIKE,TPV",OPN,6100.0
84,084 - Chilpancingo - Tlaxcala,S/N,19,HIP,19.40702,-99.169587,84 CHILPANCINGO-TLAXCALA,"81,83",0,BIKE,OPN,6100.0
85,085 - Rosas Moreno - Sullivan,S/N,1,S-R,19.43425,-99.162508,85 ROSAS MORENO-SULLIVAN,"1,3,12",12,BIKE,OPN,6470.0
86,086 - Sullivan-Insurgentes,S/N,9,1,19.432378,-99.159077,86 SULLIVAN-INSURGENTES,"12,20",12,"BIKE,TPV",OPN,6470.0
87,087 - Gante - Venustiano Carranza,S/N,4,CEN,19.43182,-99.13974,87 GANTE-VENUSTIANO CARRANZA,"88,95,96",19,"BIKE,TPV",OPN,
88,088 - 2a Cerrada de 5 de Mayo - Palma,S/N,4,1,19.433815,-99.135303,88 2A CDA 5 DE MAYO-PALMA,"55,89",10,BIKE,OPN,
89,089 - República de Guatemala - Monte de Piedad,S/N,6,CEN,19.434946,-99.133989,89 REPUBLICA DE GUATEMALA-MONTE DE PIEDAD,"88,90",5,"BIKE,TPV",OPN,
90,090 - José María Pino Suárez - Corregidora,S/N,8,CEN,19.431698,-99.132446,90 JOSE MARIA PINO SUAREZ-CORREGIDORA,"88,89",19,"BIKE,TPV",OPN,
91,091 - Republica de Cuba-Allende,S/N,5,CEN,19.4374,-99.137571,91 REPUBLICA DE CUBA-ALLENDE,"90,92,93",14,BIKE,OPN,6500.0
92,092 - San Ildefonso-República de Argentina,S/N,0,CEN,19.436531,-99.131497,92 SAN ILDEFONSO-REPUBLICA DE ARGENTINA,"90,91,93",21,BIKE,OPN,6500.0
93,093 - Palma Norte-Republica de Cuba,S/N,3,CEN,19.436741,-99.134811,93 PALMA NORTE-REPUBLICA DE CUBA,"90,91,92",20,BIKE,OPN,6500.0
94,94 - Lic. Verdad-Moneda,S/N,17,CEN,19.433766,-99.130918,94 LIC. VERDAD-MONEDA,94,7,BIKE,OPN,
95,095 - 20 de Noviembre-Venustiano Carranza,S/N,3,CEN,19.430722,-99.133698,95 20 DE NOVIEMBRE-VENUSTIANO CARRANZA,"93,96,97",15,BIKE,OPN,6500.0
96,096 - López-Ayuntamiento,S/N,9,CEN,19.430625,-99.14248,96 LOPEZ-AYUNTAMIENTO,98,25,BIKE,OPN,6500.0
97,097 - Republica de Salvador-Pino Suarez,S/N,9,CEN,19.429189,-99.132759,97 REPUBLICA DE SALVADOR-PINO SUAREZ,"90,100",17,"BIKE,TPV",OPN,6500.0
98,098 - Emilio Dondé-Av. Balderas,S/N,0,CEN,19.430267,-99.14861,98 EMILIO DONDE-AV. BALDERAS,"107,108",35,BIKE,OPN,6500.0
99,99 - Ernesto Pugibet-Luis Moya,S/N,1,CEN,19.42995,-99.14591,99 ERNESTO PUGIBET-LUIS MOYA,"96,98,122",29,BIKE,OPN,
100,100 - 20 de Noviembre-Mesones,S/N,5,CEN,19.428485,-99.1338,100 20 DE NOVIEMBRE-MESONES,"95,97,101",18,BIKE,OPN,6500.0
101,1ER. CALLEJÓN DE MESONES - MESONES,S/N,2,CEN,19.428366,-99.135895,101 1ER. CALLEJÓN DE MESONES-MESONES,"100,104,105",19,BIKE,OPN,
102,102 - Echeveste-Bolivar,S/N,2,1,19.42821,-99.13949,102 ECHEVESTE-BOLIVAR,"101,104,109",13,BIKE,OPN,
103,103 JOAQUÍN VELÁZQUEZ DE LEÓN-GARCÍA ICAZBALCETA,s/n,15,S-R,19.441669,-99.165217,103 JOAQUÍN VELÁZQUEZ DE LEÓN-GARCÍA ICAZBALCETA,103,11,BIKE,OPN,
104,104 - San Jerónimo-Isabel la Católica,S/N,2,CUA,19.427059,-99.137116,104 SAN JERONIMO-ISABEL LA CATOLICA,"101,105,109",13,"BIKE,TPV",OPN,6500.0
105,105 - San Jerónimo-5 de Febrero,S/N,8,CEN,19.426755,-99.135014,105 SAN JERONIMO-5 DE FEBRERO,"101,104,106",16,BIKE,OPN,6500.0
106,106 - San Jerónimo-José María Pino Suarez,S/N,7,CEN,19.42649,-99.133537,106 SAN JERONIMO-JOSE MARIA PINO SUAREZ,"100,101,105",20,BIKE,OPN,6500.0
107,107 - Tolsa-Balderas,S/N,1,CEN,19.427329,-99.149971,107 TOLSA-BALDERAS,"98,108,122",35,BIKE,OPN,6500.0
108,108 - Tolsa-Balderas,S/N,0,CEN,19.427305,-99.149533,E108 TOLSA-BALDERAS,"33,98,107,260",24,ELECTRIC_BIKE,OPN,6500.0
109,109 - Nezahualcóyotl-Isabel la Católica,S/N,2,CEN,19.425311,-99.137421,109 NEZAHUALCOYOTL-ISABEL LA CATOLICA,"104,105,106",28,BIKE,OPN,6500.0
110,110 - Dr. Valenzuela-Dr. Río de la loza,S/N,3,1,19.42513,-99.14339,110 DR. VALENZUELA-DR. RÍO DE LA LOZA,"107,108,122",33,BIKE,OPN,
111,111 GUILLERMO PRIETO-JOAQUÍN VELÁZQUEZ DE LEÓN,S/N,2,1,19.4382369,-99.1659465,111 GUILLERMO PRIETO-JOAQUÍN VELÁZQUEZ DE LEÓN,"103,160,183",22,BIKE,OPN,
112,112 - Av. Morelos-Abraham González,S/N,4,1,19.432819,-99.151734,112 AV. MORELOS-ABRAHAM GONZALEZ,"98,113,114",18,BIKE,OPN,6500.0
113,113 - General Prim-Versalles,S/N,6,JUA,19.430369,-99.154419,113 GENERAL PRIM-VERSALLES,"114,116,119",15,BIKE,OPN,6500.0
114,114 - Lucerna-Abraham González,S/N,15,JUA,19.428989,-99.153618,114 LUCERNA-ABRAHAM GONZALEZ ,"113,116,119",9,BIKE,OPN,6500.0
115,115 - Roma-Dinamarca,S/N,22,JUA,19.429947,-99.159698,115 ROMA-DINAMARCA ,"116,117,118",3,BIKE,OPN,6500.0
116,116 - Londres-Roma,S/N,10,JUA,19.428985,-99.15664,116 LONDRES-ROMA,"115,118,199",12,BIKE,OPN,6500.0
117,117 - Londres-Napoles,S/N,9,JUA,19.427132,-99.160369,117 LONDRES-NAPOLES ,"116,118,120",24,BIKE,OPN,6500.0
118,118 - Liverpool-Dinamarca,S/N,15,JUA,19.427114,-99.158251,118 LIVERPOOL-DINAMARCA,"116,117,120",6,BIKE,OPN,6500.0
119,119 - Turín-Abraham González,S/N,7,JUA,19.42679,-99.15554,119 TURÍN-ABRAHAM GONZÁLEZ,"114,118,125",26,BIKE,OPN,
120,120 - Marsella-Nápoles,S/N,8,JUA,19.425437,-99.159458,120 MARSELLA-NAPOLES,"117,118,121",16,BIKE,OPN,6500.0
121,121 - Niza-Chapultepec,S/N,16,JUA,19.424137,-99.161317,121 NIZA-CHAPULTEPEC,"117,120,128",2,BIKE,OPN,6500.0
122,122 - José María Vértiz-Av. Dr. Río de la Loza,S/N,12,DOC,19.425502,-99.146337,122 JOSE MARIA VERTIZ-AV.DR. RIO DE LA LOZA,"99,108,110",18,BIKE,OPN,6500.0
123,123 - Claudio Bernard-Dr. Lavista,S/N,10,1,19.424161,-99.153117,123 CLAUDIO BERNARD-DR. LAVISTA,"124,125,133",20,BIKE,OPN,6500.0
124,124 - Claudio Bernard-Dr. Liceaga,S/N,2,DOC,19.422392,-99.150358,124 CLAUDIO BERNARD-DR. LICEAGA,"119,123,133",33,BIKE,OPN,6500.0
125,125 - Morelia-Circular de Morelia,S/N,2,R-N,19.424541,-99.156204,125 MORELIA-CIRCULAR DE MORELIA,"119,123,127",30,BIKE,OPN,6500.0
126,126 - Jalapa-Puebla,S/N,0,R-N,19.422288,-99.162138,126 JALAPA-PUEBLA,"121,128,129",36,BIKE,OPN,
127,127 -  Puebla-Merida,S/N,5,R-N,19.423318,-99.15833,127 PUEBLA-MERIDA,"125,128,130",24,BIKE,OPN,
128,128 - Orizaba-Río de Janeiro,S/N,21,R-N,19.422148,-99.160645,128 ORIZABA-RIO DE JANEIRO,"121,126,127",3,"BIKE,TPV",OPN,6500.0
129,129 - Tonalá-Durango,S/N,16,R-N,19.4206,-99.163312,129 TONALÁ-DURANGO,"126,128,131",7,BIKE,OPN,
130,130 - Mérida-Durango,S/N,4,R-N,19.421576,-99.158015,130 MÉRIDA-DURANGO,"127,132,133",17,BIKE,OPN,
131,131 - Colima-Jalapa,S/N,0,R-N,19.419579,-99.161314,131 COLIMA-JALAPA,"129,134",18,BIKE,OPN,
132,132 - Colima-Frontera,S/N,3,R-N,19.420667,-99.15645,132 COLIMA-FRONTERA,"130,133,135",21,BIKE,OPN,
133,133 - Colima-Morelia,S/N,2,R-N,19.421138,-99.154725,133 COLIMA-MORELIA,"130,132,135",33,BIKE,OPN,
134,134 - Álvaro Obregón-Orizaba,S/N,8,R-N,19.418304,-99.15956,134 ÁLVARO OBREGÓN-ORIZABA,"131,136,137",25,"BIKE,TPV",OPN,
135,135 - Álvaro Obregón-Morelia,S/N,8,R-N,19.419225,-99.155099,135 ÁLVARO OBREGÓN-MORELIA,"132,133,137",28,"BIKE,TPV",OPN,
136,136 - Tonalá-Álvaro Obregón,S/N,8,R-N,19.417715,-99.162729,136 ÁLVARO OBREGÓN-TONALÁ,136,19,"BIKE,TPV",OPN,
137,137 - Álvaro Obregón-Mérida,S/N,7,R-N,19.418774,-99.157081,137 ÁLVARO OBREGÓN-MÉRIDA,"132,135,138",20,BIKE,OPN,
138,138 - Guanajuato-Frontera,S/N,13,R-N,19.417702,-99.155313,138 GUANAJUATO-FRONTERA,"135,140,144",11,BIKE,OPN,
139,139 - Tonalá-Guanajuato,S/N,3,R-N,19.416128,-99.162097,E139 TONALÁ-GUANJUATO,"33,136,141,155",21,ELECTRIC_BIKE,OPN,
140,140 - Mérida-Zacatecas,S/N,3,R-N,19.416605,-99.156853,140 MÉRIDA-ZACATECAS,"138,141,144",15,BIKE,OPN,
141,141 - Zacatecas-Luis Cabrera,S/N,3,R-N,19.415905,-99.15954,141 ZACATECAS-LUIS CABRERA,"139,140,143",27,"BIKE,TPV",OPN,
142,142 - San Luis Potosí-Eje 2 Pte. Monterrey,S/N,0,R-N,19.413232,-99.164121,142 SAN LUIS POTOSI-EJE 2 PTE. MONTERREY,"139,145,146",29,BIKE,OPN,
143,143 - Córdoba-San Luis Potosí,S/N,2,R-N,19.414303,-99.157542,143 CÓRDOBA-SAN LUIS POTOSÍ,"141,144,147",19,BIKE,OPN,
144,144 - Frontera-San Luis Potosí,S/N,7,R-N,19.415192,-99.154837,144 FRONTERA-SAN LUIS POTOSÍ,"140,143,148",20,BIKE,OPN,
145,145 - Eje 2 Sur Yucatán-Chiapas,S/N,8,R-N,19.41286,-99.160661,145 EJE 2 SUR YUCATÁN-CHIAPAS,"142,147,151",18,BIKE,OPN,
146,146 - Coahuila-Manzanillo,S/N,2,R-N,19.410737,-99.165716,146 COAHUILA-MANZANILLO,"150,152,153",22,BIKE,OPN,
147,147 - Coahuila-Orizaba,S/N,5,R-N,19.412182,-99.158443,147 COAHUILA-ORIZABA,"145,149,151",21,BIKE,OPN,
148,148 - Coahuila-Av. Cuauhtémoc,S/N,0,R-N,19.412829,-99.155116,148 COAHUILA-AV.CUAUHTEMOC,"143,147,149",24,BIKE,OPN,
149,149 - Mérida-Antonio Anza,S/N,5,R-N,19.41199,-99.155699,149 MÉRIDA-ANTONIO ANZA,"143,147,148",31,BIKE,OPN,
150,150 - Campeche-Medellín,S/N,9,1,19.409965,-99.164292,150 CAMPECHE-MEDELLÍN,"146,151,152",18,BIKE,OPN,
151,151 - Campeche-Tonalá,S/N,0,ROM,19.410529,-99.160873,151 CAMPECHE-TONALÁ,"145,147,155",27,BIKE,OPN,
152,152 - Tlacotalpan-Campecha,S/N,8,ROM,19.409098,-99.167181,152 TLACOTALPAN-CAMPECHE,"146,150,157",21,"BIKE,TPV",OPN,
153,153 - Manzanillo-Tlaxcala,S/N,3,ROM,19.407468,-99.165141,153 MANZANILLO-TLAXCALA,"154,157,161",18,BIKE,OPN,
154,154 - Tuxpan-Tlaxcala,S/N,6,1,19.406683,-99.167962,154 TUXPAN-TLAXCALA,"152,153,157",27,"BIKE,TPV",OPN,
155,155 - Jalapa-Tlaxcala,S/N,5,ROM,19.408218,-99.159911,E155 JALAPA-TLAXCALA,"139,147,151",18,ELECTRIC_BIKE,OPN,
156,156 - Tepic-Amenalco,S/N,0,ROM,19.407121,-99.162202,156 TEPIC-AMENALCO,"153,155,162",18,BIKE,CLS,
157,157 - Tepic-Tlacotalpan,S/N,10,ROM,19.406236,-99.166616,157 TEPIC-TLACOTALPAN,"153,154,161",19,BIKE,OPN,
158,158 - Huatabampo- Eje 1 Pte. Av. Cuauhtémoc,S/N,20,ROM,19.407447,-99.155717,158 HUATABAMPO-EJE 1PTE. CUAUHTÉMOC,"155,159,163",16,"BIKE,TPV",OPN,
159,159 - Huatabampo-Eje 1 Pte. Av. Cuauhtémoc,S/N,16,ROM,19.407517,-99.155373,159 HUATABAMPO-EJE 1 PTE. AV. CUAUHTÉMOC,"155,158,163",19,BIKE,OPN,
160,160 - Alfonzo Herrera-Gabino Barrera,S/N,3,S-R,19.44025,-99.16346,E160 ALFONSO HERRERA-GABINO BARRERA,"103,174,257",21,ELECTRIC_BIKE,OPN,
161,161 - Quintana Roo-Manzanillo,S/N,0,ROM,19.405533,-99.164913,161 QUINTANA ROO-MANZANILLO,"153,157,162",21,BIKE,OPN,
162,162 - Tehuantepec-Medellín,S/N,5,ROM,19.404907,-99.162485,162 TEHUANTEPEC-MEDELLÍN,"161,165",22,BIKE,OPN,
163,163 - Toluca-Bajío,S/N,10,ROM,19.405246,-99.156431,163 TOLUCA-BAJÍO,"158,159,165",26,BIKE,OPN,
164,164 - Bajío-Tlacotalpan,S/N,6,ROM,19.403204,-99.16596,164 BAJÍO-TLACOTALPAN,"157,161,162",20,BIKE,OPN,
165,165 - Bajío-Eje 2 Pte. Monterrey,S/N,7,ROM,19.404268,-99.160503,165 BAJÍO-EJE 2 PTE. MONTERREY,"162,163",14,BIKE,OPN,
166,166 - Progreso-Cda. Antonio Maceo,S/N,0,ESC,19.406069,-99.183549,166 PROGRESO-CDA. ANTONIO MACEO,"170,172,181",24,BIKE,OPN,
167,167 - General Salvador Alvarado-Progreso,S/N,2,ESC,19.404651,-99.179375,167 GENERAL SALVADOR ALVARADO-PROGRESO,"168,172,178",22,BIKE,OPN,
168,168 - Comercio-Progreso,S/N,3,ESC,19.403997,-99.1776,168 COMERCIO-PROGRESO,"167,169,173",18,"BIKE,TPV",OPN,
169,169 - Prosperidad-Progreso,S/N,10,ESC,19.403019,-99.174934,169 PROSPERIDAD-PROGRESO,"168,170,175",11,BIKE,OPN,
170,170 - Observatorio Oriente-Revolución,S/N,1,ESC,19.404029,-99.184342,170 OBSERVATORIO ORIENTE-REVOLUCIÓN,"166,167,172",20,BIKE,OPN,
171,171 - Comercio-Jose Martí,S/N,2,1,19.402584,-99.178199,171 COMERCIO-JOSE MARTÍ,"167,168,173",25,BIKE,OPN,
172,172 - General Francisco Murguia-Jose Martí,S/N,7,ESC,19.4034921,-99.1816002,172 GENERAL FRANCISCO MURGUIA-JOSE MARTÍ,"167,170,171",11,BIKE,OPN,
173,173 - Minería-Jose Martí,S/N,2,1,19.401682,-99.176398,173 MINERÍA-JOSÉ MARTÍ,"168,169,171",19,BIKE,OPN,
174,174 - Joaquín Garcia-Ignacio Manuel Altamirano,S/N,16,1,19.44111,-99.16164,174 JOAQUÍN GARCIA-IGNACIO MANUEL ALTAMIRANO,"160,183,254",17,"BIKE,TPV",OPN,
175,175 - Mutualismo-José Martí,S/N,1,ESC,19.400767,-99.172533,E175 MUTUALISMO-JOSÉ MARTí,"173,182,300",21,ELECTRIC_BIKE,OPN,
176,176-LUIS DONALDO COLOSIO - AV. JESÜS GARCÏA,S/N,13,BUE,19.442689,-99.152286,176 AV. JESÜS GARCÏA-LUIS DONALDO COLOSIO,"266,267,272",22,BIKE,OPN,
177,177 - BENJAMIN HILL-CARLOS ZETINA,S/N,8,H-C,19.408841,-99.181692,177 BENJAMIN HILL-CARLOS ZETINA,"176,178,190",12,BIKE,OPN,
178,178 - Tamaulipas-Francisco Murguía,S/N,11,H-C,19.406833,-99.180457,178 TAMAULIPAS-FRANCISCO MURGUÍA,"166,167,177",18,"BIKE,TPV",OPN,
179,179 - Nuevo León-Quintana Roo,S/N,7,HIP,19.404452,-99.171438,179 NUEVO LEÓN-QUINTANA ROO,"154,180,182",20,BIKE,OPN,
180,180 - Quintana Roo-Villa Hermosa,S/N,8,HIP,19.404554,-99.169953,180 QUINTANA ROO-VILLA HERMOSA,"154,179,182",22,BIKE,OPN,
181,181 - Benjamin Franklin - Ometusco,S/N,1,1,19.40472,-99.17448,181 BENJAMIN FRANKLIN-OMETUSCO,"168,169,179",23,BIKE,OPN,
182,182 - PROGRESO-ASTRONOMOS,S/N,25,HIP,19.402089,-99.17139,182 PROGRESO-ASTRONOMOS,"175,179",10,"BIKE,TPV",OPN,
183,183 - Gabino Barrera-Guillermo Prieto,S/N,2,S-R,19.43767,-99.16402,183 GABINO BARRERA-GUILLERMO PRIETO,"160,174,255",34,BIKE,OPN,
184,184 - General Gómez Pedraza-Gobernador Tiburcio Montiel,S/N,15,SMC,19.41479,-99.18508,184 GRAL GÓMEZ PEDRAZA-GOBERNADOR TIBURCIO M,"185,186,187",21,"BIKE,TPV",OPN,
185,185 - General Antonio Léon-General Pedro Antonio de los Santos,S/N,19,SMC,19.4128,-99.1828,185 GRAL ANTONIO LÉON-GRAL PEDRO A DE LOS S.,"176,187,190",11,BIKE,OPN,
186,186 - Gregorio V. Gelati-Francisco Molinos del C.,S/N,17,SMC,19.4124291,-99.1885117,186 GREGORIO V GELATI-FRANCISCO MOLINOS DEL C,"187,188,189",0,BIKE,OPN,
187,187 - Genral Cano-Gobernador Gregorio V. Gelati,S/N,12,SMC,19.41123,-99.18551,187 GENERAL CANO-GOBERNADOR GREGORIO V GELATI,"176,189,190",7,BIKE,OPN,
188,188 - Gobernador Melchor Múzquiz-Gobernador Ignacio Esteva,S/N,4,SMC,19.41171,-99.19014,188 GDOR MELCHOR MÚZQUIZ-GDOR IGNACIO ESTEVA ,"186,187,189",10,"BIKE,TPV",OPN,
189,189 - Gobernador Rafael Rebollar-Gobernador José Ceballos,S/N,14,SMC,19.41004,-99.18798,189 GDOR RAFAEL REBOLLAR-GDOR JOSÉ CEBALLOS,"186,187,188",2,BIKE,OPN,
190,190 - Gobernador Ignacio Esteva-Maestro José Vasconcelos,S/N,6,SMC,19.409569,-99.183833,E190 GDOR IGNACIO ESTEVA-MTRO JOSÉ VASCONCELOS,"33,187,189,449",18,ELECTRIC_BIKE,OPN,
191,191 - Gobernador Rafael Rebollar-Gobernador Vicente Eguia,S/N,11,SMC,19.4079,-99.18795,191 GDOR RAFAEL REBOLLAR-GDOR VICENTE EGUIA,"176,189,190",10,BIKE,OPN,
192,192 - Rubén Darío-Reforma,S/N,31,CHA,19.42592,-99.190755,192 RUBEN DARIO-REFORMA,"193,234,238",3,"BIKE,TPV",OPN,11510.0
193,193 - Rubén Darío.Reforma,S/N,18,CHA,19.425907,-99.190733,193 RUBEN DARIO-REFORMA,"192,234,238",17,BIKE,OPN,11510.0
194,194 - Av. Paseo de la Reforma-Circuito Mahatma Gandhi,S/N,13,CHA,19.424282,-99.180334,194 CTO MAHATMA GANDHI-AV. PASEO DE LA REFORMA,"195,253,261",11,"BIKE,TPV",OPN,11510.0
195,195 - Circuito Mahatma Gandhi-Av. Paseo de la Reforma,S/N,0,CHA,19.424926,-99.185147,195 AV. PASEO DE LA REFORMA-CTO MAHATMA GANDHI,"194,253,261",23,"BIKE,TPV",OPN,
196,196 - Lago Tanganica- Av. Ejército Nacional,S/N,23,POL,19.438349,-99.192904,196 LAGO TANGANICA-AV. EJERCITO NACIONAL,"204,244,245",4,BIKE,OPN,11510.0
197,197 - Miguel de Cervantes Saavedra-Ferrocarril de Cuernavaca,S/N,0,1,19.440077,-99.204316,197 MIGUEL DE CERVANTES-FC DE CUERNAVACA,197,34,"BIKE,TPV",OPN,
198,198 - Sócrates-Ejercito Nacional,S/N,0,POL,19.438168,-99.203888,198 SÓCRATES-EJERCITO NACIONAL ,"240,241",26,"BIKE,TPV",OPN,
199,199 - Anatole France-Av. Ejército Nacional,S/N,3,POL,19.437934,-99.197241,199 ANATOLE FRANCE-AV. EJERCITO NACIONAL,"196,202,203",20,BIKE,OPN,11510.0
200,200 - Emerson-Av. Ejército Nacional,S/N,0,POL,19.437596,-99.188785,200 EMERSON-AV. EJERCITO NACIONAL,"201,204,245",26,BIKE,OPN,11510.0
201,201 - Lope de Vega-Ejército Nacional,S/N,0,POL,19.437431,-99.187215,201 LOPE DE VEGA-EJERCITO NACIONAL ,"200,205,245",18,BIKE,OPN,11510.0
202,202 - Calderón de la Barca-Av. Homero,S/N,11,POL,19.43617,-99.198943,202 CALDERON DE LA BARCA-AV. HOMERO,"199,206,215",10,BIKE,OPN,11510.0
203,203 - Tennyson-Av. Homero,S/N,8,POL,19.435985,-99.194832,203 TENNYSON-AV. HOMERO,"196,204,210",15,BIKE,OPN,11510.0
204,204 - Temistocles-Homero,S/N,16,1,19.435882,-99.19152,204 TEMISTOCLES-HOMERO,"196,200,245",11,BIKE,OPN,11510.0
205,205 - Taine-Homero,S/N,7,POL,19.435525,-99.184713,205 TAINE-HOMERO,"201,207,217",13,BIKE,OPN,11510.0
206,206 - Moliere-Homero,S/N,0,POL,19.435798,-99.201419,206 MOLIERE-HOMERO ,"202,214,215",23,"BIKE,TPV",OPN,
207,207 - Tasso-Homero,S/N,10,POL,19.434861,-99.183322,207 TASSO-HOMERO ,"205,217,226",12,BIKE,OPN,11510.0
208,208 - Hesiodo-Lamartine,S/N,18,POL,19.434182,-99.189835,208 HESIODO-LAMARTINE ,"211,212,218",9,BIKE,OPN,11510.0
209,209 - Solón-Horacio,S/N,2,POL,19.435478,-99.206359,209 SOLON-HORACIO ,"213,214,219",21,BIKE,OPN,11510.0
210,210 Eugenio Sue-Horacio,S/N,16,POL,19.434076,-99.194091,210 EUGENIO SUE-HORACIO ,"203,204,216",11,BIKE,OPN,
211,211 - Newton-Horacio,S/N,1,POL,19.433607,-99.188528,211 NEWTON-HORACIO,"208,212,218",35,BIKE,OPN,11510.0
212,212 - Hegel-Horacio,S/N,2,POL,19.433567,-99.188096,212 HEGEL-HORACIO ,"211,218,224",34,"BIKE,TPV",OPN,11510.0
213,213 - Solón-Cicerón,S/N,0,POL,19.43432,-99.20632,213 SOLÓN-CICERÓN,"209,214,219",27,BIKE,OPN,11510.0
214,214 - Platón-Horacio,S/N,0,POL,19.434353,-99.20322,214 PLATÓN-HORACIO,"206,209,215",24,BIKE,OPN,
215,215 - Edgar Alan Poe-Horacio,S/N,0,POL,19.43384,-99.19968,215 EDGAR ALAN POE-HORACIO,"206,214,221",23,BIKE,OPN,11510.0
216,216 - Alejandro Dumas-Horacio,S/N,22,POL,19.433419,-99.195746,216 ALEJANDRO DUMAS-HORACIO ,"210,222",1,"BIKE,TPV",OPN,11510.0
217,217 - Euler-Horacio,S/N,20,POL,19.432888,-99.183605,217 EULER-AV. HORACIO ,"207,225,226",14,"BIKE,TPV",OPN,11510.0
218,218 - Hegel-Ibarbourou,S/N,3,POL,19.432451,-99.188033,218 HEGEL-IBARBOUROU ,"211,212,224",20,BIKE,OPN,11510.0
219,219 - Esopo-FC de Cuernavaca,S/N,0,POL,19.433542,-99.207808,219 ESOPO-FC DE CUERNAVACA,"213,220,227",36,BIKE,OPN,11510.0
220,220 - Plino-Presidente Masaryk,S/N,0,POL,19.432655,-99.205727,220 PLINIO-PRESIDENTE MASARYK ,"213,219,227",22,BIKE,OPN,11510.0
221,221 - Emilio Castelar-Presidente Masaryk,S/N,1,POL,19.431799,-99.201565,221 EMILIO CASTELAR-PRESIDENTE MASARYK ,"215,230,231",16,"BIKE,TPV",OPN,11510.0
222,222 - Alejandro Dumas-Presidente Masarik,S/N,0,POL,19.431417,-99.195774,E222 ALEJANDRO DUMAS-PRESIDENTE MASARYK,"233,241,247",24,ELECTRIC_BIKE,OPN,11510.0
223,223 - Newton-Presidente Masarik,S/N,15,POL,19.431242,-99.191613,223 NEWTON-PRESIDENTE MASARYK ,"222,224,231",14,"BIKE,TPV",OPN,
224,224 - Hegel-Presidente Masaryk,S/N,6,POL,19.431255,-99.188065,224 HEGEL-PRESIDENTE MASARYK,"212,218,225",15,BIKE,OPN,11510.0
225,225 - Petrarca-Presidente Masaryk,S/N,9,POL,19.431172,-99.185612,225 PETRARCA-PRESIDENTE MASARYK,"224,226,232",15,BIKE,OPN,11510.0
226,226 - Wallon-Presidente Masaryk,S/N,0,POL,19.431033,-99.18222,226 WALLON-PRESIDENTE MASARYK,"217,239,247",25,BIKE,OPN,11511.0
227,227 - Campos Elíseos-Periférico,S/N,0,1,19.431791,-99.207373,227 CAMPOS ELÍSEOS-PERIFÉRICO,"213,219,220",24,BIKE,OPN,
228,228 - Campos Elíseos-Jean de La fontaine,S/N,0,POL,19.427705,-99.19912,228 CAMPOS ELÍSEOS-JEAN DE LA FONTAINE,"230,233,235",20,"BIKE,TPV",OPN,11510.0
229,229 - Dickens-Seneca,S/N,0,POL,19.430515,-99.203331,229 DICKENS-SENECA,"221,235,236",21,BIKE,OPN,11510.0
230,230 - Edgar Alan Poe-Dickens,S/N,7,POL,19.430098,-99.200074,230 EDGAR ALAN POE-DICKENS,"221,235,236",9,BIKE,OPN,11510.0
231,231 - Newton-Aristoteles,S/N,25,POL,19.42977,-99.19349,231 NEWTON-ARISTOTELES ,"222,223,234",2,BIKE,OPN,11510.0
232,232 - Taine -  Rubén Darío,S/N,2,1,19.42894,-99.185389,232 TAINE-RUBEN DARÍO ,"224,225,226",28,BIKE,OPN,
233,233 - Julio Verne-Luis G. Urbina,S/N,9,POL,19.429314,-99.196965,233 JULIO VERNE-LUIS G. URBINA ,"222,230,231",6,"BIKE,TPV",OPN,11510.0
234,234 - Tres Picos-Arquímides,S/N,3,1,19.42783,-99.191539,234 TRES PICOS-ARQUÍMIDES ,"192,193,231",24,BIKE,OPN,
235,235 - Campos Eliseos-Moliere,S/N,0,POL,19.42933,-99.20218,235 CAMPOS ELISEOS-MOLIERE ,"229,230,236",25,BIKE,OPN,
236,236 - Campos Eliseos-Moliere,S/N,0,POL,19.42944,-99.20243,236 CAMPOS ELISEOS-MOLIERE ,"229,230,235",29,BIKE,OPN,
237,237 - Andrés Bello-Elliot,S/N,28,1,19.426744,-99.193986,237 ANDRÉS BELLO-ELLIOT ,"193,234,238",1,"BIKE,TPV",OPN,
238,238 - Andrés Bello-Elliot,S/N,20,1,19.426765,-99.193752,238 ANDRÉS BELLO-ELLIOT ,"193,234,237",9,BIKE,OPN,
239,239 - Rincon del Bosque-Ruben Dario,S/N,0,POL,19.430153,-99.181355,239 RINCON DEL BOSQUE-RUBEN DARÍO ,"226,247,250",21,BIKE,OPN,11510.0
240,204- Ejercito Nacional-F.C. de Cuernavaca,S/N,0,POL,19.43855,-99.2063,240 EJERCITO NACIONAL-F.C. DE CUERNAVACA ,"198,241",36,"BIKE,TPV",OPN,
241,241 - Ejercito Nacional-Juan Vazquez de la Mella,S/N,0,POL,19.43862,-99.20758,E241 EJERCITO NAL-JUAN VAZQUEZ DE LA MELLA ,"222,460",24,ELECTRIC_BIKE,OPN,
242,242 - Miguel de Cervantes Saavedra-Pról. Moliere,S/N,0,GRA,19.440344,-99.20105,242 MIGUEL DE CERVANTES SAAVEDRA-PROL MOLIERE ,"198,199,243",30,BIKE,OPN,11510.0
243,243 - Miguel de Cervantes Saavedra-Lago Filt,S/N,0,1,19.440839,-99.196712,243 MIGUEL DE CERVANTES SAAVEDRA-LAGO FILT ,"199,242,244",27,BIKE,OPN,11510.0
244,244 - Miguel de Cervantes Saavedra-Lago Victoria,S/N,9,GRA,19.440885,-99.193315,244 MIGUEL DE CERVANTES SAAVEDRA-LAGO VICTORIA ,"196,243,245",7,BIKE,OPN,11510.0
245,245 - Lago Onega-Av. Ejército Nacional,S/N,3,GRA,19.43819,-99.19048,245 LAGO ONEGA-AV. EJERCITO NACIONAL ,"196,200,201",21,BIKE,OPN,11510.0
246,246 - Leibnitz-Thiers,S/N,0,2,19.434147,-99.179835,246 LEIBNITZ-THIERS,"207,247,248",15,BIKE,OPN,11510.0
247,247 - Herschel-Rousseau,S/N,0,2,19.432276,-99.18064,E247 HERSCHEL-ROUSSEAU ,"246,469,472",22,ELECTRIC_BIKE,OPN,11510.0
248,248 - Shakespeare-Lafayette,S/N,11,1,19.43175,-99.177399,248 SHAKESPEARE-LAFAYETTE ,"246,247,249",13,BIKE,OPN,11510.0
249,249 - Shakespeare-Darwin,S/N,12,2,19.429877,-99.177569,249 SHAKESPEARE-DARWIN ,"248,250,251",6,BIKE,OPN,11510.0
250,250 - Darwin-Mariano Escobedo,S/N,13,1,19.429057,-99.17966,250 DARWIN-MARIANO ESCOBEDO ,"239,249,252",14,"BIKE,TPV",OPN,11510.0
251,251 - Goethe-Darwin,S/N,4,2,19.429261,-99.17538,251 GOETHE-DARWIN ,"248,249,252",14,BIKE,OPN,11510.0
252,252 - Víctor Hugo-Shakespeare,S/N,0,2,19.427575,-99.17702,252 VICTOR HUGO-SHAKESPEARE ,"249,251,253",18,BIKE,OPN,11510.0
253,253 - Dante-Tolstoi,S/N,10,1,19.425835,-99.177924,253 DANTE-TOLSTOI ,"195,252,261",11,"BIKE,TPV",OPN,11510.0
254,254 - Alfonso Herrera-Miguel Shultz,S/N,15,S-R,19.43935,-99.16007,254 ALFONSO HERRERA-MIGUEL SHULTZ ,"160,174,256",15,BIKE,OPN,
255,255-Jose Rosas Moreno-Guillermo Prieto,S/N,0,1,19.437159,-99.161808,255 JOSE ROSAS MORENO-GUILLERMO PRIETO ,"160,183,257",36,BIKE,OPN,
256,256 - Gómez Farías Sadi Carnot,S/N,5,S-R,19.4372,-99.15816,256 GÓMEZ FARÍAS-SADI CARNOT ,"254,259",22,BIKE,OPN,
257,257 - Manuel Maria Contreras-Villalongin,S/N,0,S-R,19.4338,-99.16622,E257 MANUEL MARIA CONTRERAS-VILLALONGIN ,"6,33,160,469",20,ELECTRIC_BIKE,OPN,
258,258 - Circuito Interior-Juan Escutia,S/N,12,CON,19.4167,-99.1791,258 CIRCUITO INTERIOR-JUAN ESCUTIA ,"36,49,53",18,BIKE,OPN,
259,259 - Tómas Alva Edison-Ponciano Arriaga,S/N,2,1,19.43757,-99.15468,259 TÓMAS ALVA EDISON-PONCIANO ARRIAGA ,256,22,BIKE,OPN,
260,260 - Av. Juárez-Balderas,S/N,10,CEN,19.435354,-99.147742,E260 AV JUAREZ-BALDERAS ,"29,33,41,108",11,ELECTRIC_BIKE,OPN,
261,261 Paseo de la Reforma-Río Mississippi,S/N,0,1,19.42495,-99.17246,261 PASEO DE LA REFORMA - RÍO MISSISSIPPI,"195,252,253",30,BIKE,OPN,
262,262 - Republica de Cuba-Republica de Brasil,S/N,2,CEN,19.43693,-99.13395,262 REPUBLICA DE CUBA-REPUBLICA DE BRASIL ,"91,92,93",30,"BIKE,TPV",OPN,
263,263 - Sadi Carnot - Gómez Farias,S/N,4,S-R,19.436274,-99.158425,263 SADI CARNOT-GÓMEZ FARIAS ,"85,86,256",26,"BIKE,TPV",OPN,
264,264 - H. Ferrocarrileros - Jesús Garcia ,S/N,6,1,19.440985,-99.152935,264 HÉROES FERROCARRILEROS-AV. CENTRAL,"266,268",30,BIKE,OPN,
265,265 - Jesús Garcia-Héroes Ferrocarrileros,S/N,1,1,19.440839,-99.152265,265 HÉROES FERROCARRILEROS-JESÚS GARCIA,"264,275",34,"BIKE,TPV",CLS,
266,266 - Av. Jesús Garcia -  Carlos J. Meneses,S/N,7,BUE,19.444031,-99.152187,266 AV. JESÚS GARCIA-CARLOS J. MENESES ,"267,268,269",29,"BIKE,TPV",OPN,
267,267 - Carlos J. Meneses - Av. jesús García,S/N,1,BUE,19.443735,-99.152203,267 AV. JESÜS GARCÏA-CARLOS J. MENESES,"176,266,271",35,BIKE,OPN,
268,268 Luis Donaldo Colosio - Av. Jesus Garcia,S/N,2,BUE,19.442467,-99.151658,268 LUIS DONALDO COLOSIO-AV.JESÚS GARCÍA ,"176,269,273",34,BIKE,OPN,
269,269 Luis Donaldo Colosio - Aldama,S/N,3,BUE,19.442448,-99.151586,269 LUIS DONALDO COLOSIO-ALDAMA ,"176,268,273",31,BIKE,OPN,
270,270 - De la Republica-Ponciano Arriaga,S/N,6,TAB,19.43676,-99.15387,270 DE LA REPUBLICA-PONCIANO ARRIAGA ,270,29,"BIKE,TPV",OPN,
271,271 Av. Jesús García - J. Meneses,S/N,9,1,19.443928,-99.152525,271 AV. CENTRAL-J. MENESES ,"266,267,272",26,BIKE,OPN,
272,271 Av. Jesus Garcia - J. Meneses,S/N,13,BUE,19.443556,-99.152556,272 AV. CENTRAL-J. MENESES ,"266,267,271",23,BIKE,OPN,
273,273 Luis Donaldo Colosio - Av. Jesus Garcia,S/N,3,1,19.442707,-99.152956,273 LUIS DONALDO COLOSIO-AV. CENTRAL,"176,268,274",33,BIKE,OPN,
274,274 Luis Donaldo Colosio - Av. Insurgentes Norte,S/N,15,BUE,19.442772,-99.153289,274 LUIS DONALDO COLOSIO-AV INSURGENTES NORTE ,"176,268,273",20,BIKE,OPN,
275,275 Héroes Ferrocarrileros - Av. Jesús García,S/N,1,BUE,19.441062,-99.153164,275 HÉROES FERROCARRILEROS-AV. INSURGENTES NORTE,264,33,BIKE,OPN,
276,276 - Anaxágoras-Obrero Mundial,S/N,2,NAR,19.401986,-99.156366,276 ANAXÁGORAS-OBRERO MUNDIAL,"277,280,281",27,BIKE,OPN,3020.0
277,277 - Ampliación Tonalá-Obrero Mundial,S/N,9,1,19.401807,-99.15909,277 AMPLIACIÓN TONALÁ-OBRERO MUNDIAL,"165,276,280",18,BIKE,OPN,3020.0
278,278 - Mier Y Pesado-Obrero Mundial,S/N,4,1,19.40071,-99.163831,278 MIER Y PESADO-OBRERO MUNDIAL,"164,279,282",17,BIKE,OPN,3103.0
279,279 - La Morena-Providencia,S/N,1,DVN,19.399908,-99.166553,279 LA MORENA-PROVIDENCIA,"164,278,282",27,BIKE,OPN,3103.0
280,280 - Anaxágoras-Obrero Mundial,S/N,17,NAR,19.4015,-99.156406,280 ANAXÁGORAS-OBRERO MUNDIAL,"276,277,281",19,"BIKE,TPV",OPN,3020.0
281,281 - Pitágoras-La Morena,S/N,5,NAR,19.398532,-99.157308,281 PITÁGORAS-LA MORENA,"276,280,295",25,BIKE,OPN,3020.0
282,282 - La Morena-Eje 2 Poniente Gabriel Mancera,S/N,12,DVN,19.398692,-99.161273,282 LA MORENA-EJE 2 PONIENTE GABRIEL MANCERA,"278,293,294",5,BIKE,OPN,3103.0
283,283 - Av. Coyoacán-Rafael Donde,S/N,5,1,19.39827,-99.167383,283 AV. COYOACÁN-RAFAEL DONDE,"279,292,293",16,BIKE,OPN,3103.0
284,284 - Dakota-Vermont,S/N,1,NAP,19.397693,-99.172981,284 DAKOTA-VERMONT,"289,290,291",32,BIKE,OPN,3810.0
285,285 - 12 De Octubre-Mineria,S/N,3,ESC,19.3997946,-99.1775178,285 12 DE OCTUBRE-MINERIA,"171,173,286",15,BIKE,OPN,11800.0
286,286 - 13 De Septiembre-Avenida Patriotismo,S/N,4,ESC,19.399201,-99.179943,286 13 DE SEPTIEMBRE-AVENIDA PATRIOTISMO,"171,285,287",17,BIKE,OPN,11800.0
287,287 - 13 De Septiembre-Puente De La Morena,S/N,3,ESC,19.398946,-99.183254,287 13 DE SEPTIEMBRE-PUENTE DE LA MORENA,"286,288,311",18,BIKE,OPN,11800.0
288,288 - 11 De Abril-Avenida 2,S/N,4,1,19.396333,-99.183575,288 11 DE ABRIL-AVENIDA 2,"287,310,311",14,BIKE,OPN,3800.0
289,289 - Chicago-Yosemite,S/N,11,NAP,19.397308,-99.174548,289 CHICAGO-YOSEMITE,"284,290,304",7,BIKE,OPN,3810.0
290,290 - Yosemite-Colorado,S/N,7,NAP,19.396333,-99.172667,290 YOSEMITE-COLORADO,"284,289,303",20,BIKE,OPN,3810.0
291,291 - Magdalena-División Del Norte,S/N,1,DVN,19.397651,-99.169946,291 MAGDALENA-DIVISIÓN DEL NORTE,"283,284,290",23,BIKE,OPN,3103.0
292,292 - Adolfo Prieto-Eje 4 Sur Xola,S/N,6,DVN,19.396917,-99.166264,292 ADOLFO PRIETO-EJE 4 SUR XOLA,"283,293,299",30,BIKE,OPN,3103.0
293,293 - Mier Y Pesado-Eje 4 Sur Xola,S/N,6,DVN,19.397373,-99.164598,293 MIER Y PESADO-EJE 4 SUR XOLA,"283,292,294",30,"BIKE,TPV",OPN,3103.0
294,294 - Nicolás San Juan-Eje 4 Sur Xola,S/N,0,NAR,19.396513,-99.160924,294 NICOLÁS SAN JUAN-EJE 4 SUR XOLA,"282,295,298",24,BIKE,OPN,3020.0
295,295 - Anaxágoras-Eje 4 Sur Xola,S/N,16,NAR,19.396328,-99.156871,295 ANAXÁGORAS-EJE 4 SUR XOLA,"281,296,297",20,"BIKE,TPV",OPN,3020.0
296,296 - Diagonal San Antonio-Enrique Rébsamen,S/N,2,NAR,19.394283,-99.158756,E296 DIAGONAL SAN ANTONIO-ENRIQUE RÉBSAMEN,"295,297,300",19,ELECTRIC_BIKE,OPN,3020.0
297,297 - Diagonal San Antonio-Enrique Rébsamen,S/N,1,NAR,19.394412,-99.158907,297 DIAGONAL SAN ANTONIO-ENRIQUE RÉBSAMEN,"295,296,320",30,BIKE,OPN,3020.0
298,298 - Romero De Terreros-Gabriel Mancera,S/N,7,DVN,19.394073,-99.16214,298 ROMERO DE TERREROS-GABRIEL MANCERA,"294,318,319",13,BIKE,OPN,3103.0
299,299 - Romero De Terreros-Mier Y Pesado,S/N,3,DVN,19.394601,-99.165054,299 ROMERO DE TERREROS-MIER Y PESADO,"292,298,318",20,BIKE,OPN,3103.0
300,300 - Providencia -Luz Saviñon,S/N,2,DVN,19.393268,-99.168333,E300 PROVIDENCIA -LUZ SAVIÑON,"296,301,302",19,ELECTRIC_BIKE,OPN,3103.0
301,301 - Luz Saviñón-Magdalena,S/N,16,DVN,19.393807,-99.171133,301 LUZ SAVIÑÓN-MAGDALENA,"300,302,316",8,BIKE,OPN,3103.0
302,302 - Luz Saviñon-Magdalena,S/N,18,DVN,19.393832,-99.171466,302 LUZ SAVIÑON-MAGDALENA,"301,303,304",18,BIKE,OPN,3103.0
303,303 - Montesito-Av. Insurgentes,S/N,19,NAP,19.394842,-99.173025,303 MONTESITO-AV. INSURGENTES,"301,302,304",8,"BIKE,TPV",OPN,3810.0
304,304 - Montesito-Dakota,S/N,19,NAP,19.395043,-99.173821,304 MONTESITO-DAKOTA,"290,303,305",14,BIKE,OPN,3810.0
305,305 - Avenida Del Parque-Arizona,S/N,0,1,19.394693,-99.175531,305 AVENIDA DEL PARQUE-ARIZONA,"304,306,307",34,"BIKE,TPV",OPN,3810.0
306,306 - Dakota-Filadelfia,S/N,2,NAP,19.393699,-99.175664,306 DAKOTA-FILADELFIA,"305,307,308",34,"BIKE,TPV",OPN,3810.0
307,307 - Minesota-Dakota,S/N,9,NAP,19.393701,-99.175834,307 MINESOTA-DAKOTA,"305,306,308",18,BIKE,OPN,3810.0
308,308 - Nueva York-Arizona,S/N,1,1,19.393594,-99.178072,308 NUEVA YORK-ARIZONA,"306,307,309",29,BIKE,OPN,3810.0
309,309 - Pennsylvania-Arizona,S/N,11,NAP,19.393162,-99.17956,309 PENNSYLVANIA-ARIZONA,"308,310,313",16,BIKE,OPN,3810.0
310,310 - Calle 1-Av. Patriotismo,S/N,3,1,19.395319,-99.181733,310 CALLE 1-AV. PATRIOTISMO,"309,311,312",11,BIKE,OPN,3800.0
311,311 - Calle 5-Avenida Revolución,S/N,2,1,19.393665,-99.185391,311 CALLE 5-AVENIDA REVOLUCIÓN,"310,312,328",16,BIKE,OPN,3800.0
312,312 - Avenida 2-Calle 7,S/N,1,SPP,19.392634,-99.183737,312 AVENIDA 2-CALLE 7,"310,311,328",26,"BIKE,TPV",OPN,3800.0
313,313 - Pennsylvania-Oklahoma,S/N,9,1,19.391431,-99.178989,313 PENNSYLVANIA-OKLAHOMA,"308,309,314",15,BIKE,OPN,3810.0
314,314 - Nuerva York-Louisiana,S/N,6,NAP,19.391647,-99.177331,314 NUERVA YORK-LOUISIANA,"307,313,327",15,BIKE,OPN,3810.0
315,315 - Alabama-Montana,S/N,5,NAP,19.391472,-99.1736,315 ALABAMA-MONTANA,"301,302,316",16,BIKE,OPN,3810.0
316,316 - San Francisco-Concepción Beistegui,S/N,0,DVN,19.391056,-99.1712,316 SAN FRANCISCO-CONCEPCIÓN BEISTEGUI,"301,302,315",26,BIKE,OPN,3103.0
317,317 - Avenida Coyoacán-Torres Adalid,S/N,0,DVN,19.391456,-99.166157,317 AVENIDA COYOACÁN-TORRES ADALID,"299,300,318",19,"BIKE,TPV",OPN,3103.0
318,318 - Luz Saviñón-Amores,S/N,1,DVN,19.392249,-99.164127,318 LUZ SAVIÑÓN-AMORES,"299,317,319",20,BIKE,OPN,3103.0
319,319 - Diagonal San Antonio-Luz Saviñon,S/N,6,DVN,19.391991,-99.162684,319 DIAGONAL SAN ANTONIO-LUZ SAVIÑON,"298,318,320",21,BIKE,OPN,3103.0
320,320 - Enrique Rébsamen-Luz Saviñon,S/N,9,NAR,19.391323,-99.15936,320 ENRIQUE RÉBSAMEN-LUZ SAVIÑON,"296,297,319",9,BIKE,OPN,3020.0
321,321 - Torres Adalid-Anaxágoras,S/N,7,1,19.389477,-99.157513,321 TORRES ADALID-ANAXÁGORAS,"320,322,340",16,BIKE,OPN,3020.0
322,322 - Heriberto Frías-Concepción Beistegui,S/N,9,1,19.388528,-99.160616,322 HERIBERTO FRÍAS-CONCEPCIÓN BEISTEGUI,"321,323,339",18,BIKE,OPN,3020.0
323,323 - Concepción Beistegui-Gabriel Mancera,S/N,2,DVN,19.389026,-99.163403,323 CONCEPCIÓN BEISTEGUI-GABRIEL MANCERA,"319,322,324",20,BIKE,OPN,3103.0
324,324 - Amores-Avenida Eugenia,S/N,1,DVC,19.3872468,-99.1656554,324 AMORES-AVENIDA EUGENIA,"323,336,337",17,BIKE,OPN,3100.0
325,325 - Providencia -Avenida Del Valle,S/N,7,1,19.3881779,-99.1696894,325 PROVIDENCIA -AVENIDA DEL VALLE,"316,335,336",17,BIKE,OPN,3100.0
326,326 - Eugenia-Nebraska,S/N,1,AMN,19.388978,-99.174811,326 EUGENIA-NEBRASKA,"327,334,335",35,BIKE,OPN,3840.0
327,327 - Georgia -Pennsylvania,S/N,0,NAP,19.38885,-99.17772,E327 GEORGIA -PENNSYLVANIA,"300,314,326",24,ELECTRIC_BIKE,OPN,3810.0
328,328 - Avenida 1-Calle 7,S/N,9,SPP,19.392586,-99.184742,328 AVENIDA 1-CALLE 7,"311,312,329",18,BIKE,OPN,3800.0
329,329 - Calle 13-Avenida 1,S/N,7,SPP,19.390306,-99.184812,329 CALLE 13-AVENIDA 1,"312,328,330",17,BIKE,OPN,3800.0
330,330 - Calle 15-Avenida Patriotismo,S/N,3,SPP,19.389358,-99.182606,330 CALLE 15-AVENIDA PATRIOTISMO,"329,331,332",14,BIKE,OPN,3800.0
331,331 - Avenida 2-Calle 17,S/N,6,SPP,19.388547,-99.183971,331 AVENIDA 2-CALLE 17,"329,330,332",21,BIKE,OPN,3800.0
332,332 - Sur De Calle 27-Avenida 3,S/N,1,SPP,19.385508,-99.183809,332 SUR DE CALLE 27-AVENIDA 3,"330,331,333",21,BIKE,OPN,3800.0
333,333 - Georgia -Carolina,S/N,9,NAP,19.387624,-99.180978,333 GEORGIA -CAROLINA,"330,332,349",12,BIKE,OPN,3810.0
334,334 - Nuerva York-Av. Insurgentes,S/N,8,AMN,19.386568,-99.175089,334 NUEVA YORK-AV. INSURGENTES,"326,335,346",21,BIKE,OPN,3840.0
335,335 - Magdalena-Ameyalco,S/N,0,DVC,19.387003,-99.173504,335 MAGDALENA-AMEYALCO,"326,334,346",33,BIKE,OPN,3100.0
336,336 - San Borja-Cda. Bartoloche,S/N,1,DVC,19.385531,-99.169673,336 SAN BORJA-CDA. BARTOLOCHE,"325,337,345",17,BIKE,OPN,3100.0
337,337 - San Borja-Martín Menlalde,S/N,3,DVC,19.384849,-99.16704,337 SAN BORJA-MARTÍN MENLALDE,"324,336,338",18,"BIKE,TPV",OPN,3100.0
338,338 - Nicolas San Juan-San Borja,S/N,2,DVC,19.384249,-99.163273,338 NICOLAS SAN JUAN-SAN BORJA,"324,336,337",19,BIKE,OPN,3100.0
339,339 - Enrique Rébsamen-Avenida Eugenia,S/N,4,NAR,19.386032,-99.160548,339 ENRIQUE RÉBSAMEN-AVENIDA EUGENIA,"322,340,343",17,BIKE,OPN,3020.0
340,340 - Anaxágoras-Avenida Eugenia,S/N,4,NAR,19.385571,-99.158188,340 ANAXÁGORAS-AVENIDA EUGENIA,"339,341,343",26,"BIKE,TPV",OPN,3020.0
341,341 - San Borja-Avenida Cuauhtemoc,S/N,4,NAR,19.382851,-99.158204,341 SAN BORJA-AVENIDA CUAUHTEMOC,"340,343,364",26,BIKE,OPN,3020.0
342,342 - Anaxágoras-Angel Urraza Eje 6 Sur,S/N,1,NAR,19.381076,-99.159455,342 ANAXÁGORAS-ANGEL URRAZA EJE 6 SUR,"341,344,359",34,BIKE,OPN,3020.0
343,343 - Enrique Rébsamen-División Del Norte,S/N,0,DVC,19.384099,-99.160826,343 ENRIQUE RÉBSAMEN-DIVISIÓN DEL NORTE,"338,341,344",18,BIKE,OPN,3100.0
344,344 - Heriberto Frías-Angel Urraza Eje 6 Sur,S/N,4,DVC,19.382107,-99.162243,344 HERIBERTO FRÍAS-ANGEL URRAZA EJE 6 SUR,"338,343,358",23,BIKE,OPN,3100.0
345,345 - Miraflores-Patricio Sanz,S/N,2,ISB,19.384498,-99.172223,345 MIRAFLORES-PATRICIO SANZ,"334,335,346",18,BIKE,OPN,3100.0
346,346 - San Francisco-Santa Margarita,S/N,0,ISB,19.385019,-99.174077,346 SAN FRANCISCO-SANTA MARGARITA,"334,335,345",24,BIKE,OPN,3100.0
347,347 - Pennsylvania-Maximino Avila Camacho,S/N,2,1,19.384378,-99.176097,347 PENNSYLVANIA-MAXIMINO AVILA CAMACHO,"334,346,348",25,"BIKE,TPV",OPN,3710.0
348,348 - Indiana-Avenida San Antonio,S/N,7,CDD,19.385365,-99.178216,348 INDIANA-AVENIDA SAN ANTONIO,"347,349,350",11,BIKE,OPN,3710.0
349,349 - Augusto Rodin-Avenida San Antonio,S/N,9,AMN,19.385688,-99.180857,349 AUGUSTO RODIN-AVENIDA SAN ANTONIO,"332,348,350",12,BIKE,OPN,3840.0
350,350 - Jose Clemente Orozco-Correggio,S/N,4,1,19.384062,-99.181482,350 JOSE CLEMENTE OROZCO-CORREGGIO,"349,352",26,BIKE,OPN,3710.0
351,351 - Calle 27-Avenida Revolución,S/N,12,SPP,19.385751,-99.186297,351 CALLE 27-AVENIDA REVOLUCIÓN,"332,352,364",5,BIKE,OPN,3800.0
352,352 - Tintoreto-Giorgine,S/N,4,SMN,19.384114,-99.185447,352 TINTORETO-GIORGINE,"351,364,365",26,"BIKE,TPV",OPN,3700.0
353,353 - Carolina-Holbein,S/N,1,CDD,19.382168,-99.178808,353 CAROLINA-HOLBEIN,"354,361,362",26,"BIKE,TPV",OPN,3710.0
354,354 - Boston-Av. Insurgentes,S/N,7,NBU,19.381665,-99.176685,354 BOSTON-AV. INSURGENTES,"353,361,369",16,BIKE,OPN,3720.0
355,355 - California-Sacramento,S/N,3,ISB,19.38205,-99.173291,355 CALIFORNIA-SACRAMENTO,"345,361",18,BIKE,OPN,3100.0
356,356 - Matias Romero -Adolfo Prieto,S/N,3,1,19.381292,-99.170171,356 MATIAS ROMERO -ADOLFO PRIETO,"355,357,372",13,BIKE,OPN,3100.0
357,357 - Matias Romero -Amores,S/N,6,DVC,19.380598,-99.1669248,357 MATIAS ROMERO -AMORES,"356,358,373",17,BIKE,OPN,3100.0
358,358 - Nicolas San Juan-Matias Romero,S/N,1,DVC,19.380168,-99.164222,358 NICOLAS SAN JUAN-MATIAS ROMERO ,"357,360,373",23,BIKE,OPN,3100.0
359,359 - Matias Romero -Pestallozzi,S/N,1,DVC,19.379269,-99.161169,359 MATIAS ROMERO -PESTALLOZZI,"342,360,374",30,"BIKE,TPV",OPN,3100.0
360,360 - Heriberto Frías-Matias Romero,S/N,3,DVC,19.3790279,-99.1628259,E360 HERIBERTO FRÍAS-MATIAS ROMERO,"300,358,359,391",18,ELECTRIC_BIKE,OPN,3100.0
361,361 - Porfirio Díaz-Av. Insurgentes,S/N,12,1,19.3804457,-99.1762233,361 PORFIRIO DÍAZ-AV. INSURGENTES,"354,369,370",13,BIKE,OPN,3100.0
362,362 - Augusto Rodin-Alberto Balderas,S/N,4,CDD,19.382207,-99.181043,362 AUGUSTO RODIN-ALBERTO BALDERAS,"367,368",17,BIKE,OPN,3710.0
363,363 - Holbein-Paulo Ucello,S/N,0,CDD,19.380813,-99.183851,363 HOLBEIN-PAULO UCELLO,"362,365,367",21,BIKE,OPN,3710.0
364,364 - Botichelli-Cda. De Giorgone,S/N,0,SMN,19.383063,-99.185858,364 BOTICHELLI-CDA. DE GIORGONE,"351,352,365",27,BIKE,OPN,3700.0
365,365 - Holbein-Avenida Revolución,S/N,12,SMN,19.381117,-99.186687,365 HOLBEIN-AVENIDA REVOLUCIÓN,"352,363,364",18,BIKE,OPN,3700.0
366,366 - Porfirio Díaz-Augusto Rodín,S/N,3,EXI,19.378345,-99.181973,366 PORFIRIO DÍAZ-AUGUSTO RODÍN,"362,367,368",21,BIKE,OPN,3740.0
367,367 - Boston -Augusto Rodín,S/N,0,NBU,19.37946,-99.181632,367 BOSTON -AUGUSTO RODÍN,"362,363,366",21,BIKE,OPN,3720.0
368,368 - Porfirio Díaz-Cincinatti,S/N,9,1,19.379246,-99.179344,368 PORFIRIO DÍAZ-CINCINATTI ,"366,367,369",15,BIKE,OPN,3740.0
369,369 - Porfirio Díaz-Av. Insurgentes,S/N,3,1,19.379884,-99.177478,369 PORFIRIO DÍAZ-AV. INSURGENTES,"367,368",33,"BIKE,TPV",OPN,3740.0
370,370 - Tlacoquemecatl-Av. Insurgentes,S/N,4,TLA,19.378818,-99.177054,370 TLACOQUEMECATL-AV. INSURGENTES,"361,369,371",26,BIKE,OPN,3200.0
371,371 - Tlacoquemecatl-Capulin,S/N,1,TLA,19.378542,-99.174328,371 TLACOQUEMECATL-CAPULIN,"361,369,370",20,BIKE,OPN,3200.0
372,372 - Dr. Roberto Gayol-Tlacoquemecatl,S/N,7,1,19.37797,-99.170289,372 DR. ROBERTO GAYOL-TLACOQUEMECATL,"373,378,379",14,"BIKE,TPV",OPN,3104.0
373,373 - Pilares-Gabriel Mancera,S/N,0,DVC,19.377968,-99.166663,373 PILARES-GABRIEL MANCERA,"357,372,378",18,BIKE,OPN,3100.0
374,374 - Anaxágoras-Pilares,S/N,2,DVC,19.376964,-99.161116,374 PITÁGORAS-PILARES,"359,375,376",28,"BIKE,TPV",OPN,3100.0
375,375 - Tenayuca-División Del Norte,S/N,6,LEV,19.376865,-99.158818,375 TENAYUCA-DIVISIÓN DEL NORTE,"359,374,376",18,BIKE,OPN,3650.0
376,376 - Pitágoras-Av. Universidad,S/N,0,LEV,19.375442,-99.161595,376 PITÁGORAS-AV. UNIVERSIDAD,"374,375,377",27,BIKE,OPN,3650.0
377,377 - Heriberto Frías-Miguel Laurent,S/N,13,DVS,19.375394,-99.16375,377 HERIBERTO FRÍAS-MIGUEL LAURENT,"373,376,400",22,BIKE,OPN,3104.0
378,378 - Miguel Laurent-Amores,S/N,0,DVS,19.375823,-99.168076,378 MIGUEL LAURENT-AMORES,"372,373,379",30,BIKE,OPN,3104.0
379,379 - Dr. Roberto Gayol-Miguel Laurent,S/N,6,1,19.375751,-99.17084,379 DR. ROBERTO GAYOL-MIGUEL LAURENT,"378,380,395",30,BIKE,OPN,3104.0
380,380 - Moras-San Lorenzo,S/N,0,TLA,19.374876,-99.173512,380 MORAS-SAN LORENZO,"392,393,394",27,BIKE,OPN,3200.0
381,381 - San Lorenzo-Manzanas,S/N,0,TLA,19.375541,-99.177894,381 SAN LORENZO-MANZANAS,"382,387,389",27,BIKE,OPN,3200.0
382,382 - San Lorenzo-Av. Insurgentes,S/N,0,TLA,19.375591,-99.178084,382 SAN LORENZO-AV. INSURGENTES,"381,387,389",24,BIKE,OPN,3200.0
383,383 - Luis Caracci-2da. Luis Caracci,S/N,12,EXI,19.375764,-99.181527,383 LUIS CARACCI-2DA. LUIS CARACCI,"366,382,387",3,BIKE,OPN,3740.0
384,384 - Empresa-Poussin,S/N,9,INM,19.375873,-99.185583,384 EMPRESA-POUSSIN,"385,386,417",12,BIKE,OPN,3920.0
385,385 - Poussin-Empresa,S/N,3,INM,19.375651,-99.18558,385 POUSSIN-EMPRESA,"384,386,417",31,"BIKE,TPV",OPN,3920.0
386,386 - Poussin-Donatello,S/N,10,INM,19.37484,-99.185846,386 POUSSIN-DONATELLO,"384,385,417",26,BIKE,OPN,3920.0
387,387 - Cadiz-Empresa,S/N,5,INM,19.37455556,-99.180505555556,387 CADIZ-EMPRESA,"381,382,383",13,BIKE,OPN,3920.0
388,388 - Valencia-Malaga,S/N,7,INM,19.373038,-99.181355,388 VALENCIA-MALAGA,"387,389,390",14,BIKE,OPN,3920.0
389,389 - Santander-Felix Cuevas,S/N,11,INM,19.373528,-99.179356,389 SANTANDER-FELIX CUEVAS,"388,390,391",25,BIKE,OPN,3920.0
390,390 - Oso-Felix Cuevas,S/N,7,DVS,19.373228,-99.17826,390 OSO-FELIX CUEVAS,"389,391,416",29,"BIKE,TPV",OPN,3104.0
391,391 - Oso-Felix Cuevas,S/N,2,DVS,19.373142,-99.178283,E391 OSO-FELIX CUEVAS,"390,416,434",19,ELECTRIC_BIKE,OPN,3104.0
392,392 - Patricio Sanz-Felix Cuevas,S/N,6,TLA,19.3730067,-99.1747749,392 PATRICIO SANZ-FELIX CUEVAS,"380,393,394",15,BIKE,OPN,3200.0
393,393 - Adolfo Prieto-Felix Cuevas,S/N,1,TLA,19.372796,-99.172558,393 ADOLFO PRIETO-FELIX CUEVAS,"380,392,394",32,"BIKE,TPV",OPN,3200.0
394,394 - Dr. Roberto Gayol-Felix Cuevas,S/N,0,DVS,19.372437,-99.171592,394 DR. ROBERTO GAYOL-FELIX CUEVAS,"393,395,396",36,BIKE,OPN,3104.0
395,395 - San Lorenzo-Callejón Martín Menlalde,S/N,9,DVS,19.373742,-99.169814,395 SAN LORENZO-CALLEJÓN MARTÍN MENLALDE,"379,394,396",19,BIKE,OPN,3104.0
396,396 - Martín Menlalde-Felix Cuevas,S/N,8,DVS,19.371554,-99.170187,396 MARTÍN MENLALDE-FELIX CUEVAS,"394,395,413",13,BIKE,OPN,3104.0
397,397 - San Lorenzo-Gabriel Mancera,S/N,5,DVS,19.373194,-99.167247,397 SAN LORENZO-GABRIEL MANCERA,"398,399,400",23,BIKE,OPN,3104.0
398,398 - Sanchez Azcona-Felix Cuevas,S/N,10,DVS,19.37103,-99.16566,398 SANCHEZ AZCONA-FELIX CUEVAS,"397,399,400",17,BIKE,OPN,3104.0
399,399 - Heriberto Frías-San Lorenzo,S/N,13,DVS,19.372407,-99.164519,399 HERIBERTO FRÍAS-SAN LORENZO,"397,398,400",23,BIKE,OPN,3104.0
400,400 - San Lorenzo-Heriberto Frias,S/N,18,DVS,19.3726458,-99.1642743,400 SAN LORENZO-HERIBERTO FRIAS,"397,398,399",12,BIKE,OPN,3104.0
401,401 - San Lorenzo-Avenida Cuauhtemoc,S/N,8,SCA,19.372147,-99.16158,401 SAN LORENZO-AVENIDA CUAUHTEMOC,"400,402,403",24,BIKE,OPN,3310.0
402,402 - Uxmal-Municipio Libre,S/N,3,1,19.3709452,-99.1587223,402 UXMAL-MUNICIPIO LIBRE,"401,403,405",19,"BIKE,TPV",OPN,3310.0
403,403 - Uxmal-Municipio Libre,S/N,0,SCA,19.371371,-99.158639,403 UXMAL-MUNICIPIO LIBRE,"401,402,405",29,BIKE,OPN,3310.0
404,404 - Miguel Laurent-Avenida División Del Norte,S/N,12,LEV,19.373813,-99.157387,404 MIGUEL LAURENT-AVENIDA DIVISIÓN DEL NORTE,"402,403,405",18,BIKE,OPN,3650.0
405,405 - División Del Norte-Municipio Libre,S/N,6,PON,19.370619,-99.156626,405 DIVISIÓN DEL NORTE-MUNICIPIO LIBRE,"402,403,404",24,BIKE,OPN,3303.0
406,406 - Parroquia Av. Mexico-Coyoacan,S/N,11,SCA,19.367831,-99.163261,406 PARROQUIA AV. MEXICO-COYOACAN,"402,407,411",10,BIKE,OPN,3310.0
407,407 - Prolongación Xochicalco-General Emiliano Zapat,S/N,7,REE,19.367294,-99.158694,407 PROL. XOCHICALCO-GENERAL EMILIANO ZAPATA,"406,410",14,BIKE,OPN,3320.0
408,408 - Prolongación Petén-General Emiliano Zapata,S/N,0,REE,19.36677,-99.156843,408 PROLONGACIÓN PETÉN-GENERAL EMILIANO ZAPATA,"407,409,410",27,BIKE,CLS,3320.0
409,409 - Azores-División Del Norte,S/N,11,SCA,19.365102,-99.155499,409 AZORES-DIVISIÓN DEL NORTE,"410,430",13,BIKE,OPN,3310.0
410,410 - Prolongación Tajín-Prolongación Repúblicas,S/N,10,SCA,19.36564,-99.158063,410 PROLONGACIÓN TAJÍN-PROLONGACIÓN REPÚBLICAS,"407,409",14,BIKE,OPN,3310.0
411,411 - Parroquia-Avenida México-Coyoacan,S/N,0,SCA,19.367864,-99.163626,411 PARROQUIA-AVENIDA MÉXICO-COYOACAN,"412,425,427",34,BIKE,OPN,3310.0
412,412 - Parroquia-Avenida Universidad,S/N,7,SCA,19.3684182,-99.1654145,412 PARROQUIA-AVENIDA UNIVERSIDAD,"411,425,426",29,"BIKE,TPV",OPN,3310.0
413,413 - Parroquia-Avenida Coyoacán,S/N,1,DVS,19.369782,-99.171906,413 PARROQUIA-AVENIDA COYOACÁN,"396,414,424",33,BIKE,OPN,3104.0
414,414 - Parroquia-José Ignacio Bartolache,S/N,12,DVS,19.370187,-99.173712,414 PARROQUIA-JOSÉ IGNACIO BARTOLACHE,"413,415,423",17,BIKE,OPN,3104.0
415,415 - San Francisco-Parroquía,S/N,8,DVS,19.371498,-99.17602,415 SAN FRANCISCO-PARROQUÍA,"391,414,416",22,BIKE,OPN,3104.0
416,416 - Recreo-Parroquía,S/N,0,1,19.371308,-99.177607,416 RECREO-PARROQUÍA,"390,391,415",30,BIKE,OPN,3104.0
417,417 - Goya-Augusto Rodín,S/N,1,INM,19.373262,-99.184333,417 GOYA-AUGUSTO RODÍN,"384,385,386",29,"BIKE,TPV",OPN,3920.0
418,418 - Galicia-Actipan,S/N,2,INM,19.371152,-99.183034,418 GALICIA-ACTIPAN,"388,417,419",30,BIKE,OPN,3920.0
419,419 - Actipan-Cadiz,S/N,3,INM,19.370606,-99.181502,419 ACTIPAN-CADIZ,"418,420,421",27,BIKE,OPN,3920.0
420,420 - María Luz Bringas-Oso,S/N,0,ACT,19.369723,-99.17964,420 MARÍA LUZ BRINGAS-OSO,"418,419,421",27,BIKE,OPN,3230.0
421,421 - María Luz Bringas-Oso,S/N,0,ACT,19.369467,-99.179401,421 MARÍA LUZ BRINGAS-OSO,"419,420,422",30,BIKE,OPN,3230.0
422,422 - Bufalo-José María Rico (Eje 8),S/N,2,ACT,19.368356,-99.177487,422 BUFALO-JOSÉ MARÍA RICO (EJE 8),"421,423,436",19,BIKE,OPN,3230.0
423,423 - Moras-José María Rico (Eje 8),S/N,6,ACA,19.367631,-99.175342,423 MORAS-JOSÉ MARÍA RICO (EJE 8),"422,436,437",18,BIKE,OPN,3240.0
424,424 - Amores-José María Rico (Eje 8),S/N,2,DVS,19.367208,-99.170531,424 AMORES-JOSÉ MARÍA RICO (EJE 8),"413,425,435",13,BIKE,OPN,3104.0
425,425 - Nicolas San Juan-Avenida Universidad,S/N,9,DVS,19.367087,-99.16741,425 NICOLAS SAN JUAN-AVENIDA UNIVERSIDAD,"411,412,426",27,BIKE,OPN,3104.0
426,426 - Cerrada De Popocatepetl-Av. Popocatepetl (Eje,S/N,4,XOC,19.365519,-99.166017,426 CERRADA DE POPOCATEPETL-AV. POPOCATEPETL (EJE ,"411,412,425",30,BIKE,OPN,3330.0
427,427 - Avenida México-Coyoacan-Av. Popocatepetl (Eje,S/N,11,SCA,19.365023,-99.162993,427 AVENIDA MÉXICO-COYOACAN-AV. POPOCATEPETL (EJE ,"411,412,426",10,BIKE,OPN,3310.0
428,428 - Prolongación Uxmal-Av. Popocatepetl (Eje 8),S/N,1,GPM,19.363418,-99.160353,428 PROLONGACIÓN UXMAL-AV. POPOCATEPETL (EJE 8),"427,430,431",26,BIKE,OPN,3340.0
429,429 - Pirineos-Av. Popocatepetl (Eje 8),S/N,6,SCA,19.363071,-99.158292,429 PIRINEOS-AV. POPOCATEPETL (EJE 8),"428,430,431",15,BIKE,OPN,3310.0
430,430 - Tripoli-Av. Popocatepetl (Eje 8),S/N,12,SCA,19.362139,-99.154974,430 TRIPOLI-AV. POPOCATEPETL (EJE 8),"409,429,431",16,BIKE,OPN,3310.0
431,431 - Bruno Traven-Paz Montes De Oca,S/N,5,GPM,19.36145,-99.15822,431 BRUNO TRAVEN-PAZ MONTES DE OCA,"428,429,430",16,BIKE,OPN,3340.0
432,432 - Carrillo Pto-Golondrinas,S/N,5,GPM,19.361296,-99.162581,432 CARRILLO PUERTO-AV. MÉXICO-COYOACÁN,"443,444",31,BIKE,OPN,3340.0
433,433 - Jose María Olloqui-Lopéz Costilla,S/N,5,DVS,19.363558,-99.170819,433 JOSE MARÍA OLLOQUI-LOPÉZ COSTILLA,"434,435,439",16,BIKE,OPN,3104.0
434,434 - Jose María Olloqui-Amores,S/N,0,DVS,19.363741,-99.171268,E434 JOSE MARÍA OLLOQUI-AMORES,"391,433,435",24,ELECTRIC_BIKE,OPN,3104.0
435,435 - Rodriguez Saro-Avenida Coyoacán,S/N,14,ACT,19.365154,-99.172906,435 RODRIGUEZ SARO-AVENIDA COYOACÁN,"433,434,438",22,BIKE,OPN,3230.0
436,436 - Rodriguez Saro-Bufallo,S/N,6,ACA,19.366217,-99.177819,436 RODRIGUEZ SARO-BUFALLO,"422,423,437",24,BIKE,OPN,3240.0
437,437 - Moras-Comunal,S/N,8,1,19.36480833,-99.17602222,437 MORAS-COMUNAL,"423,436,438",13,BIKE,OPN,3240.0
438,438 - Adolfo Prieto-José María Olloqui,S/N,6,1,19.36479722,-99.17458333,438 ADOLFO PRIETO-JOSÉ MARÍA OLLOQUI,"434,435,437",18,BIKE,OPN,3240.0
439,439 - Amores-Avenida Coyoacán,S/N,3,ACA,19.36218889,-99.17246667,439 AMORES-AVENIDA COYOACÁN,"433,434,438",15,BIKE,OPN,3240.0
440,440 - Real De Mayorazgo-Puente Xoco,S/N,2,1,19.36065,-99.168669,440 REAL DE MAYORAZGO-PUENTE XOCO,"433,439,441",33,BIKE,OPN,3330.0
441,441 - Puente Xoco-Real De Mayorazgo,S/N,10,XOC,19.361215,-99.167527,441 PUENTE XOCO-REAL DE MAYORAZGO,"433,440",26,BIKE,OPN,3330.0
442,442 - Real De Mayorazgo-Avenida México-Coyoacan,S/N,0,XOC,19.359905,-99.1653,442 REAL DE MAYORAZGO-AVENIDA MÉXICO-COYOACAN,"432,443,444",24,"BIKE,TPV",CLS,3330.0
443,443 - Bruno Trave-Avenida México-Coyoacan,S/N,1,1,19.359655,-99.162025,443 BRUNO TRAVEN-GOLONDRINAS,"432,444",29,BIKE,OPN,3340.0
444,444 - General Manuel Rincón-Agustín Gutierrez,S/N,7,GPM,19.359384,-99.159425,444 GENERAL MANUEL RINCÓN-AGUSTÍN GUTIERREZ,"431,432,443",11,BIKE,OPN,3340.0
445,445 - Riff-Avenida Rio Churubusco,S/N,4,GPM,19.35827,-99.156105,E445 RIFF-AVENIDA RIO CHURUBUSCO,"431,434,446",19,ELECTRIC_BIKE,OPN,3340.0
446,446 - Riff-Avenida Rio Churubusco,S/N,4,GPM,19.3586,-99.156101,446 RIFF-AVENIDA RIO CHURUBUSCO,"431,444,445",31,"BIKE,TPV",OPN,3340.0
447,447 AGUSTÍN MELGAR-ZAMORA,S/N,6,JUA,19.418858,-99.176776,447 AGUSTÍN MELGAR-ZAMORA,447,21,BIKE,OPN,
448,DR. ANDRADE ARCOS DE BELÉN,S/N,10,,19.426611,-99.14447,448 DR. ANDRADE - ARCOS DE BELÉN,448,20,"BIKE,TPV",OPN,
449,449 ACAPULCO-PUEBLA,S/N,8,JUA,19.42018,-99.174393,E449 ACAPULCO-PUEBLA,"33,36,37,139",16,ELECTRIC_BIKE,OPN,
450,450 RAMOS ARIZPE-PUENTE DE ALVARADO,S/N,1,TAB,19.43836,-99.152226,450 RAMOS ARIZPE-PUENTE DE ALVARADO,450,28,BIKE,OPN,
451,451 CAMPOS ELÍSEOS-GOLDSMITH,S/N,0,POL,19.42902,-99.201322,451 CAMPOS ELÍSEOS-GOLDSMITH,451,36,BIKE,OPN,
452,452 LEIBNITZ-AV. EJERCITO NACIONAL,S/N,0,2,19.435031,-99.179838,452 LEIBNITZ-AV. EJERCITO NACIONAL,452,18,BIKE,OPN,
453,453 PEDREGAL-TEAPA,S/N,0,MDR,19.424842,-99.203739,453 PEDREGAL-TEAPA,"455,456,458",33,BIKE,OPN,
454,454 MONTES URALES-MONTE PELVOUX,S/N,0,LMV,19.425905,-99.204236,E454 MONTES URALES-MONTE PELVOUX,"453,455,456,457,458,459",23,ELECTRIC_BIKE,OPN,
455,455 PEDREGAL-FERROCARRIL DE CUERNAVACA,S/N,0,LMV,19.426308,-99.203302,455 PEDREGAL-FERROCARRIL DE CUERNAVACA,"453,456,458",24,BIKE,OPN,
456,456 ALPES-MONTES ESCANDINAVOS,S/N,0,LCH,19.427517,-99.208412,456 ALPES-MONTES ESCANDINAVOS,"453,455,458",26,BIKE,OPN,
457,457 AV. PRADO NORTE-EXPLANADA,S/N,0,LCH,19.42703,-99.212845,E457 AV. PRADO NORTE-EXPLANADA,"454,456,459",24,ELECTRIC_BIKE,OPN,
458,458 MONTES URALES-VOLCÁN,S/N,0,LCI,19.428679,-99.206605,458 MONTES URALES-VOLCÁN,"453,455,456",24,BIKE,OPN,
459,459 VOLCÁN-MONTES URALES,S/N,0,LCI,19.429243,-99.207267,E459 VOLCÁN-MONTES URALES,"454,457,458",24,ELECTRIC_BIKE,OPN,
460,460 JUAN VÁZQUEZ DE MELLA-HOMERO,S/R,0,POL,19.437014,-99.207932,460 JUAN VÁZQUEZ DE MELLA-HOMERO,"198,209,240",31,BIKE,OPN,
461,461 PRESA DON MARTÍN-BOULEVARD MIGUEL DE CERVANTES,S/N,0,IRR,19.440106,-99.210031,461 PRESA DON MARTÍN-BOULEVARD MIGUEL DE CERVANTES,"197,240,460",32,BIKE,OPN,
462,462 PRESA FALCÓN-DANXHÓ,S/N,3,IRR,19.442338,-99.205198,462 PRESA FALCÓN-DANXHÓ,"197,240,463",21,BIKE,OPN,
463,463 LAGO ANDRÓMACO-LAGO ZURICH,S/N,6,1,19.442338,-99.202492,463 LAGO ANDRÓMACO-LAGO ZURICH,"197,242,462",21,BIKE,OPN,
464,464 MATEO ALEMÁN-PROLONGACIÓN MOLIERE ,S/N ,0,AMG,19.442421,-99.199838,E464 MATEO ALEMÁN-PROLONGACIÓN MOLIERE ,"241,242,463,467",24,ELECTRIC_BIKE,OPN,
465,465 LAGUNA DE GINEBRA-LAGO WETTER,S/N,11,CUP,19.445039,-99.194078,465 LAGUNA DE GINEBRA-LAGO WETTER,"243,244,466",16,BIKE,OPN,
466,466  LAGO ONEGA-LAGO LADOGA,S/N,6,ANH,19.44269,-99.19083,466  LAGO ONEGA-LAGO LADOGA,"243,244,465",21,BIKE,OPN,
467,467  LAGO MAYOR-LAGO ALBERTO,S/N,1,GRA,19.440399,-99.186784,E467  LAGO MAYOR-LAGO ALBERTO,"464,472,479",23,ELECTRIC_BIKE,OPN,
468,468 LAGO XOCHIMILCO-AV. EJÉRCITO NACIONAL,S/N,0,ANI,19.434183,-99.173089,468 LAGO XOCHIMILCO-AV. EJÉRCITO NACIONAL,"452,474,475",33,BIKE,OPN,
469,469BAHÍA DELA CONCEPCIÓN-BAHÍA DE TODOS LOS SANTOS,S/N,0,2,19.434183,-99.173089,E469 BAHÍA DE LA CONCEPCIÓN-BAHÍA DE TODOS LOS SAN,"247,470,472",24,ELECTRIC_BIKE,OPN,
470,470 BAHÍA DE LAS PALMAS-BAHÍA DE TODOS LOS SANTOS ,S/N,0,2,19.435039,-99.173879,470 BAHÍA DE LAS PALMAS-BAHÍA DE TODOS LOS SANTOS,"471,473",26,BIKE,OPN,
471,471 BAHÍA DE CHACHALACAS-BAHÍA SANTA BÁRBARA ,S/N,0,2,19.436287,-99.174888,471 BAHÍA DE CHACHALACAS-BAHÍA SANTA BÁRBARA ,"470,473,474",23,BIKE,OPN,
472,472 BAHÍA SANTA BÁRBARA-BAHÍA DE BALLENAS ,S/N,0,2,19.437667,-99.17711,E472 BAHÍA SANTA BÁRBARA-BAHÍA DE BALLENAS ,"247,469,471,473,474,479",24,ELECTRIC_BIKE,OPN,
473,473 BAHÍA DEL ESPÍRITU SANTO-BAHÍA DE BANDERAS,S/N,0,2,19.438143,-99.17519,473 BAHÍA DEL ESPÍRITU SANTO-BAHÍA DE BANDERAS,"471,474,478",36,"BIKE,TPV",OPN,
474,474 BAHÍA DE SAN HIPÓLITO-BAHÍA DEL ESPÍRITU SANTO,S/N,1,ANI,19.438984,-99.177549,474 BAHÍA DE SAN HIPÓLITO-BAHÍA DEL ESPÍRITU SANTO,"473,475,478",32,BIKE,OPN,
475,475 LAGO MURITZ-LAGO ALBERTO,S/N,0,ANI,19.439249,-99.181065,475 LAGO MURITZ-LAGO ALBERTO,"468,474,477",24,BIKE,OPN,
476,476 LAGO COMO-LAGUNA DE MAYRÁN,S/N,1,GRA,19.442127,-99.184433,476 LAGO COMO-LAGUNA DE MAYRÁN,"475,477",34,"BIKE,TPV",OPN,
477,477 LAGO ISEO-LAGUNA DE MAYRÁN ,S/N,1,ANI,19.440905,-99.181743,477 LAGO ISEO-LAGUNA DE MAYRÁN ,"475,476,478",23,BIKE,OPN,
478,478 LAGUNA DE MAYRÁN-LAGO CHALCO,S/N,8,ANI,19.440818,-99.176961,478 LAGUNA DE MAYRÁN-LAGO CHALCO,"473,474,477",19,BIKE,OPN,
479,479 LAGO MURITZ-AV.MARINA NACIONAL,S/N,1,AME,19.444433,-99.179664,E479 LAGO MURITZ-AV. MARINA NACIONAL,"467,469,472,476,477,478",23,ELECTRIC_BIKE,OPN,
480,480 LAGO ISEO-AV. MARINA NACIONAL,S/N,12,AME,19.446073,-99.181654,480 LAGO ISEO-AV. MARINA NACIONAL,"476,477,478",8,BIKE,OPN,
